datetime,date,time,city,state,country,shape,duration (seconds),duration (hours/min),comments,latitude,longitude,lighting_conditions
10/10/2007 01:00,2007-10-10,01:00,lebanon,or,us,light,14400,4 hours,Small Orange-White &quot;star&quot; that moves around in circles&#44 up&#44 down&#44 and sideways fast in the night sky,44.54,-122.91,night
10/10/2007 01:00,2007-10-10,01:00,stockbridge,ga,us,changing,3600,1 hour,i was abducted,33.54,-84.23,night
10/10/2007 04:00,2007-10-10,04:00,denver,co,us,changing,2700,45 minutes+,Huge lighted cluster in the eastern sky.  ((NUFORC Note:  Sighting of Venus.  PD)),39.74,-104.98,night
10/10/2007 04:30,2007-10-10,04:30,jacksonville,fl,us,sphere,30,30 seconds,half mile from de saint Jhons River&#44 low flying sphere&#44   at slow speed without noise,30.33,-81.66,night
10/10/2007 06:00,2007-10-10,06:00,indio,ca,us,oval,600,10 min.,Observed 2 white clouds of identical shape in clear blue shy with object becoming visible beneath one cloud.,33.72,-116.21,daylight
10/10/2007 13:00,2007-10-10,13:00,owego,ny,us,triangle,10800,3 hours,triangle with 3 llights blinking. 500 Lights On Object0: Yes,42.1,-76.26,daylight
10/10/2007 18:33,2007-10-10,18:33,downingtown,pa,us,circle,120,1 to 1 1/2 minutes,Star-like (but MUCH BRIGHTER AND LARGER) light west of D-town&#44 PA.  Seen against sunset.  ((NUFORC Note:  Contrail??  PD)),40.01,-75.7,night
10/10/2007 19:00,2007-10-10,19:00,austin,tx,us,flash,3,3 seconds,pulsing flash recurring at 2 second intervals 3 times along the same trajectory along 90 degrees of sky,30.27,-97.74,night
10/10/2007 20:10,2007-10-10,20:10,starrsville (covington),ga,us,sphere,60,appx. 1 minute,MUFON GEORGIA FOLLOW-UP REPORT:  Joint NUFORC-MUFON of Georgia Investigation-Fiery Sphere Shaped Object,33.54,-83.82,night
10/10/2007 20:24,2007-10-10,20:24,west palm beach florida,fl,,fireball,180,approx 3 mins,Burning ball across the sky over central/south florida. Strobing effect towards end of the final view of object.,26.71,-80.04,night
10/10/2007 20:30,2007-10-10,20:30,conyers,ga,us,unknown,3600,1 hour,Craft seen falling and dissapears into thin air.  ((NUFORC Note:  Missile launch??  We have no explanation for the aircraft.  PD)),33.67,-84.02,night
10/10/2007 20:55,2007-10-10,20:55,vero beach,fl,us,unknown,30,30 seconds,Shooting star without red globe burn-out or descent maintains steady Southerly trajectory.  ((NUFORC Note:  Missile launch??  PD)),27.64,-80.4,night
10/10/2007 21:00,2007-10-10,21:00,jensen beach,fl,us,oval,120,2 mins,A oval shaped object hovered and shot through the sky with very bright lights and then vanished. 500 Lights On Object0: Yes,27.25,-80.23,night
10/10/2007 21:43,2007-10-10,21:43,houston,tx,us,formation,35,35 seconds,Large Boomerang formation of lights over Houston&#44 Beltway 8 &amp; Westheimer moving north to south 10/10/07&#44 9:43 PM.,29.76,-95.36,night
10/10/2007 22:00,2007-10-10,22:00,duluth,mn,us,light,600,10 minutes,Bright pulsating light over lake superior.,46.78,-92.11,night
10/10/2007 22:00,2007-10-10,22:00,fleming,co,us,circle,600,10 minutes,UFO SPOTTED&#44 FLEMING COLORADO,40.68,-102.84,night
10/10/2007 22:00,2007-10-10,22:00,grove city,pa,us,unknown,3600,1:00:00,Light pattern moving silently through rapid maneuvers over Grove City,41.16,-80.09,night
10/10/2007 22:00,2007-10-10,22:00,van alstyne,tx,us,other,4,4 seconds,large mass of tiny lights all clustered together in the shape of a large boomerang over eastern sky in north Texas.,33.42,-96.58,night
10/10/2007 23:05,2007-10-10,23:05,northglenn,co,us,triangle,15,15 seconds,Hovering triangular shape seen with flashing lights seen in Colorado,39.89,-104.99,night
10/10/2007 23:20,2007-10-10,23:20,stord (norway),,,light,600,10 min,Thise could be an ETV case&#44 but it could also be helicopters or/and airplanes,59.9,5.28,night
10/10/2008 02:00,2008-10-10,02:00,london (canada),on,ca,other,120,2 min. approx,C shape with a T front over London ont on Oct 10&#44 2008 on a clear day around 2PM,42.98,-81.25,night
10/10/2008 02:00,2008-10-10,02:00,north branch,mn,us,light,300,5 min,Lights at night&#44 shining into car and garage and around blinds,45.51,-92.98,night
10/10/2008 02:00,2008-10-10,02:00,slingerlands,ny,us,circle,240,4 min,Huge&#44 moon size&#44 orange&#44 bright&#44 almost complete circle,42.63,-73.86,night
10/10/2008 04:00,2008-10-10,04:00,carlin,nv,us,disk,600,10 mins,Ufo sighting in Carlin&#44 NV&#44 at the pilot truck stop. 500 Lights On Object0: Yes,40.71,-116.1,night
10/10/2008 04:50,2008-10-10,04:50,evansville,in,us,formation,600,10 minutes+,I saw a huge V-shaped object moving slowly and silently over the roof tops in my neighborhood.,37.97,-87.56,night
10/10/2008 06:00,2008-10-10,06:00,albany,ny,us,oval,45,45 seconds,I live Colonie&#44 New York&#44 a suburb of Albany.  I live within 4 miles of the Albany International Airport. Many  takeoff&#8217;s and landings,42.65,-73.76,daylight
10/10/2008 10:22,2008-10-10,10:22,fremont,ca,us,triangle,60,1 minute,I saw a brightly lightes v shaped ufo while driving through fremont&#44ca.,37.55,-121.99,daylight
10/10/2008 18:00,2008-10-10,18:00,yuma,az,us,triangle,900,15 minutes,Carousel in the sky on fire / pixalated triangle over Yuma&#44 AZ,32.73,-114.62,night
10/10/2008 19:00,2008-10-10,19:00,south bend,in,us,light,600,10 minutes,Glowing succession of flying objects on the horizon.,41.68,-86.25,night
10/10/2008 20:00,2008-10-10,20:00,la crescent,mn,us,formation,10,10 seconds,six strange lights in the sky over La Crescent MN,43.83,-91.3,night
10/10/2008 20:00,2008-10-10,20:00,moon township,pa,,unknown,120,2 minutes,unknown rectangular shaped aircraft with bright lights seen over Rt. 60 near Pittsburgh International Airport&#44 definitely NOT a plane,40.52,-80.22,night
10/10/2008 20:00,2008-10-10,20:00,philadelphia,pa,us,oval,60,1 minute,Silent&#44 oval&#44 bright white craft in yard.,39.95,-75.16,night
10/10/2008 20:00,2008-10-10,20:00,seattle,wa,us,light,180,3 minutes,Around 8:00 pm? I Went out side and looked up at the stars and I saw a light which I thought was a small faded star  until it started t,47.61,-122.33,night
10/10/2008 20:40,2008-10-10,20:40,pueblo,co,us,light,300,5 minutes,In the northwest sky&#44 there were about seven lights moving slowly and flashing in and out if an extremely strange fashion.,38.25,-104.61,night
10/10/2008 21:30,2008-10-10,21:30,cincinnati,oh,us,oval,900,15 minutes,12 ovel objects flying east to west orange and red at a slow speed then vanished,39.16,-84.46,night
10/10/2008 22:00,2008-10-10,22:00,san diego,ca,us,disk,30,30 seconds,low flying saucer in suburban area.  ((NUFORC Note:  Student report.  PD)),32.72,-117.16,night
10/10/2008 22:30,2008-10-10,22:30,madison,wi,us,circle,20,20 secounds,Tanslucent orange/yellow UFO in Madison WI,43.07,-89.4,night
10/10/2008 23:15,2008-10-10,23:15,coldwater,oh,us,sphere,60,1 minute,spherical in shape&#44 orange flames coming from the bottom&#44 completely silent&#44 moved fast and also hovered.,40.48,-84.63,night
10/10/2009 12:00,2009-10-10,12:00,crested butte,co,us,egg,60,1min,metallic egg shaped craft above crested butte&#44 CO.  Also have seen great amount of activity READ ME&#33,38.87,-106.99,daylight
10/10/2009 12:42,2009-10-10,12:42,tulsa,ok,us,unknown,6,6 seconds,In&#39t see nothing in the park,36.15,-95.99,daylight
10/10/2009 16:24,2009-10-10,16:24,eagar,az,us,unknown,180,2-3 minutes,Second sighting was only 150 feet away.  Observations between two sightings.,34.11,-109.29,daylight
10/10/2009 19:30,2009-10-10,19:30,suffolk,va,us,unknown,900,15 minutes,It looked sort of lime green.  It appeared to have an odd texture.  It had a dimples on its surface.  It was not smooth at all.  It jus,36.73,-76.58,night
10/10/2009 20:30,2009-10-10,20:30,anaheim,ca,us,light,300,5 mins,UFO over Disneyland.,33.84,-117.91,night
10/10/2009 20:45,2009-10-10,20:45,wilmington,nc,us,light,600,10minutes,Two lights seen with a lighting of something strobe like near the ground.,34.23,-77.94,night
10/10/2009 21:00,2009-10-10,21:00,leesburg,va,us,disk,300,less than 5 minutes,Two large glowing amber/dark orangish colored circular disks-not a sound-,39.12,-77.56,night
10/10/2009 23:00,2009-10-10,23:00,michigan city,in,us,changing,900,15 minutes,black object that seemed to impode into a sphere and vanish&#44 only to reappear in the same shape and move location,41.71,-86.9,night
10/10/2009 23:23,2009-10-10,23:23,cupertino,ca,us,light,180,3 minutes,Bright red light object made random moves horizontally and floated for a while and then went up vertically.,37.32,-122.03,night
10/10/2010 01:00,2010-10-10,01:00,orchard park,ny,us,light,7200,a few hours,Xmas colored rotating lights.  ((NUFORC Note:  Twinkling stars??  PD)),42.77,-78.74,night
10/10/2010 02:30,2010-10-10,02:30,harrisburg,pa,us,circle,240,4  minutes,possible UFO sighting,40.27,-76.88,night
10/10/2010 03:00,2010-10-10,03:00,euclid,oh,us,circle,180,3 minutes,2 objects blinking red and white&#44 disappeared into the sky&#44 after hovering around sky for 3 minutes.( over lake erie,41.59,-81.53,night
10/10/2010 08:30,2010-10-10,08:30,starr,sc,us,formation,600,5-10 mins,Strange orange lights in the night sky,34.38,-82.7,daylight
10/10/2010 12:00,2010-10-10,12:00,greenwich,ct,us,light,240,4 mins,&quot;Star&quot; like objects during clear day light in formation.,41.03,-73.63,daylight
10/10/2010 13:00,2010-10-10,13:00,north charleston,sc,us,light,180,3 minutes,Object(s) visible 3 times at same place in the sky at during day in Chas&#44 SC,32.85,-79.97,daylight
10/10/2010 15:00,2010-10-10,15:00,san francisco airport,ca,,triangle,300,5 min.,White or light grey colored and leaving red/orange contrails on a bright blue sky.,37.62,-122.39,daylight
10/10/2010 16:30,2010-10-10,16:30,springfield,va,us,cigar,15,15 secs,Metalic cigar shaped object sighted during lull in a storm in Springfield&#44 VA,38.79,-77.19,daylight
10/10/2010 17:10,2010-10-10,17:10,bridgeport,ct,us,light,600,five to ten minutes,Saw a light in the sky fading in and out over Bridgeport&#44 CT.,41.17,-73.21,daylight
10/10/2010 18:30,2010-10-10,18:30,clackamas,or,us,triangle,120,1-2minutes,triangular ufo sighting in oregon 10-10-10,45.41,-122.57,night
10/10/2010 20:00,2010-10-10,20:00,san angelo,tx,us,oval,60,1 minute,I was coming back from the grocery store around 8:30 pm when I noticed a large orange glowing object in the sky above my neighbors hous,31.46,-100.44,night
10/10/2010 20:20,2010-10-10,20:20,windsor,ct,us,fireball,5,5 seconds,Bus sized fireball object over 91 about 3-400 ft up going about 150 mph at a downward 20 degree angle.,41.85,-72.64,night
10/10/2010 20:45,2010-10-10,20:45,sterling,il,us,cylinder,600,10min,It had rows of white lights with red lights pulsating in between them,41.79,-89.7,night
10/10/2010 21:00,2010-10-10,21:00,everett,wa,us,other,30,30 seconds,crown shaped object with two orange lights over everett wa,47.98,-122.2,night
10/10/2010 21:00,2010-10-10,21:00,kykotsmovi,az,us,disk,7200,2 hours,We saw  what seem to be a space craft in the eastern sky of northern AZ&#44 on 10-10-10.,35.88,-110.62,night
10/10/2010 21:30,2010-10-10,21:30,albany,ny,us,circle,10,10 seconds,Circle of light SUNY Albany.,42.65,-73.76,night
10/10/2010 22:30,2010-10-10,22:30,garden grove,ca,us,egg,7200,2 hours,Blue Light in Garden Grove,33.77,-117.94,night
10/10/2010 23:00,2010-10-10,23:00,miami,fl,us,changing,1200,approx. 20 mins,Bright lights hovering and going in and out of orchestrated formations,25.77,-80.19,night
10/10/2011 00:00,2011-10-10,00:00,troy,ny,us,triangle,7200,2 hours,Red&#44 green &amp; orange blinking triangle formation.  ((NUFORC Note:  Probable sighting of a twinkling star&#44 possibly Sirius.  PD)),42.73,-73.69,night
10/10/2011 01:00,2011-10-10,01:00,farmington,nm,us,circle,300,5 minutes,Single reddish circle  in the sky that wasn&#39t jet nor satelitte,36.73,-108.22,night
10/10/2011 02:00,2011-10-10,02:00,prescott valley,az,us,other,300,hours,Craft boomerang shape.2:00am duration hours.  ((NUFORC Note:  Probable sighting of a twinkling star&#44 possibly Sirius.  PD)),34.61,-112.32,night
10/10/2011 10:30,2011-10-10,10:30,ashville,ny,us,circle,60,1 minute,Amber object in night sky during full moon&#44 or the day before full moon,42.1,-79.38,daylight
10/10/2011 14:00,2011-10-10,14:00,epsom (surrey) (uk/england),,gb,oval,300,5 mins,Flying beer barrel shaped metallic object,51.32,-0.27,daylight
10/10/2011 14:30,2011-10-10,14:30,north kingstown,ri,us,oval,40,40 sec,Bright oval object in sky,41.55,-71.47,daylight
10/10/2011 15:00,2011-10-10,15:00,groton,ct,us,disk,5,less than 5 seconds,Small shiny object seen in sky while driving on clear day&#44 looked back for a 3rd time and it was gone.,41.35,-72.08,daylight
10/10/2011 18:15,2011-10-10,18:15,peabody-saugus,ma,,flash,2700,45 minutes,Flashing light in the sky as airplanes flew by.,42.47,-71.01,night
10/10/2011 19:00,2011-10-10,19:00,mechanicsville,va,us,light,300,5 minutes,Three orange lights flying in unison,37.61,-77.37,night
10/10/2011 19:30,2011-10-10,19:30,murfeesboro/smyrna,tn,,,2700,30-45 minutes,Multi color oblect over Smyrna/Murfreesboro 10/10/11,35.95,-86.49,night
10/10/2011 20:00,2011-10-10,20:00,hamilton (canada),on,ca,flash,4,2-4 seconds,Strange flash in the sky,43.25,-79.83,night
10/10/2011 20:00,2011-10-10,20:00,middletown,ct,us,fireball,1200,15-20 minutes,Fireball Spinning Orange UFO,41.56,-72.65,night
10/10/2011 21:00,2011-10-10,21:00,lakewood,oh,us,fireball,60,1 minute,Orange light flies overhead and turns black as it passed silently.,41.48,-81.8,night
10/10/2011 21:00,2011-10-10,21:00,york,pa,us,circle,15,15 seconds,BRIGHT LIT ORB SPEEDS ACROSS S.CENTRAL PA. SKY&#44 MAKING NO SOUND&#44 THEN DISAPPEARS,39.96,-76.73,night
10/10/2011 21:55,2011-10-10,21:55,north platte,ne,us,circle,3,3 seconds,Object over North Platte Nebraska,41.12,-100.76,night
10/10/2011 23:00,2011-10-10,23:00,waynesville,oh,us,triangle,90,1:30,Flying triangle by Waynesville&#44 Ohio,39.53,-84.09,night
10/10/2012 10:15,2012-10-10,10:15,bridgeport,ct,us,circle,630,10:30,A Bright light that is a UFO,41.17,-73.21,daylight
10/10/2012 15:00,2012-10-10,15:00,san francisco airport,ca,,triangle,300,5 minutes,San Francisco International Airport         afternoon      about  5minutes       super clear conditions,37.62,-122.39,daylight
10/10/2012 18:56,2012-10-10,18:56,san diego,ca,us,sphere,240,4 minutes,Single white light or craft passed over and very close to a commercial jet.  ((NUFORC Note:  Possibly the ISS?  PD)),32.72,-117.16,night
10/10/2012 19:09,2012-10-10,19:09,sterling heights,mi,us,oval,120,1-2 minutes,A black unknown craft is seen in the sky over Sterling Hts. Michigan,42.58,-83.03,night
10/10/2012 19:40,2012-10-10,19:40,syracuse,ny,us,light,900,15 minutes,Went to move my car to the other side of the road in the city of syracuse.  saw low flying lights moving east towards dowtown.,43.05,-76.15,night
10/10/2012 19:45,2012-10-10,19:45,syracuse,ny,us,circle,240,4 minutes,Bright orange circles going thru the sky in the same direction. Some were closer to each other.,43.05,-76.15,night
10/10/2012 20:00,2012-10-10,20:00,colorado springs,co,us,light,20,15 to 20 seconds,Bright zig zagging light in the sky above norad.,38.83,-104.82,night
10/10/2012 20:00,2012-10-10,20:00,moundville,al,us,changing,240,4 minutes,Orange fiery lighting objects changing locations.,33.0,-87.63,night
10/10/2012 20:15,2012-10-10,20:15,new york city (bronx),ny,us,disk,1800,30 minutes,A cloaked disk hovered three hundred feet above two apartment buildings in the Bronx&#44 for aproximately thirty minutes.,40.71,-74.01,night
10/10/2012 20:17,2012-10-10,20:17,mount albert (canada),on,,triangle,30,30 seconds,On Wednesday October 10 2012 at 8:17 pm in Mount Albert Ontario I saw a triangle shaped UFO. It had a single light on each point and it,44.14,-79.31,night
10/10/2012 20:30,2012-10-10,20:30,las cruces,nm,us,fireball,120,1-2 minutes,4 fireballs in sky side by side,32.31,-106.78,night
10/10/2012 20:30,2012-10-10,20:30,marion,il,us,light,240,2 to 4 minutes,I was leaving my friend&#39s house to go home.  My friend and her 3 1/2 year old daughter walked me to her front door when she noticed all,37.73,-88.93,night
10/10/2012 20:30,2012-10-10,20:30,san jose,ca,us,other,6,5-6 seconds,POSSIBLE ALIEN/HUMANOID SEEN RUNNING INTO HILLS,37.34,-121.89,night
10/10/2012 20:45,2012-10-10,20:45,phoenix,az,us,sphere,300,5 minutes,18 glowing UFOs seen over Phoenix  AZ tonight&#44 10/12/12 8:45PM,33.45,-112.07,night
10/10/2012 20:48,2012-10-10,20:48,yakima,wa,us,light,240,4 minutes,Noticed light in the N.E. section of the sky about 30 deg. up that did not move. About the size of Venus.  ((NUFORC Note:  Capella?  PD,46.6,-120.5,night
10/10/2012 21:00,2012-10-10,21:00,austin,tx,us,changing,1200,15-20 minutes,Spheres of light seen over the west campus area of austin which then broke apart and sped off in different directions.,30.27,-97.74,night
10/10/2012 21:00,2012-10-10,21:00,bean station,tn,us,cigar,180,3 minutes,Large cigar shaped flying about 800 feet high.  Huge square engines on back.,36.34,-83.28,night
10/10/2012 21:00,2012-10-10,21:00,rochester,wa,us,light,600,10 minutes,Fleet of red UFO&#39s emerging from Mt. Rainier.,46.82,-123.1,night
10/10/2012 23:01,2012-10-10,23:01,suffern,ny,us,cylinder,20,20 seconds +,UFO over Suffern NY,41.11,-74.15,night
10/10/2012 23:20,2012-10-10,23:20,rancho mirage,ca,us,rectangle,5,5 seconds,Flying red object over Rancho Mirage&#44 ca,33.74,-116.41,night
10/10/2013 00:00,2013-10-10,00:00,clifton,nj,,light,60,<1 minute,Bright light&#33&#33,40.86,-74.16,night
10/10/2013 02:32,2013-10-10,02:32,palm harbor,fl,us,chevron,5,5 seconds,Tracking north to south at apx 2500 ft. A very fast&#44 semi-transparent Chevron shape craft&#44 slightly larger than a commercial plane.,28.08,-82.76,night
10/10/2013 05:00,2013-10-10,05:00,aurburn,ky,,triangle,600,10 minutes,Three bright lights over field.,36.86,-86.71,night
10/10/2013 17:00,2013-10-10,17:00,st. louis county,mo,us,light,10800,2-3 hours,Hovering bright object moving slowly around St. Louis.,38.63,-90.2,daylight
10/10/2013 17:10,2013-10-10,17:10,ottawa (canada),on,ca,light,10,10 seconds,FATHER: My name is Eldon Trepanier&#44  and I assure you that the following statement is true.At approximately 5:10 pm&#44 I spotted a very b,45.42,-75.7,daylight
10/10/2013 19:00,2013-10-10,19:00,rittman,oh,us,light,60,1 minute,Fast moving white light.,40.98,-81.78,night
10/10/2013 19:15,2013-10-10,19:15,harvey station (canada),nb,ca,light,120,2 minutes,Slow moving bright orange light.,45.72,-67.0,night
10/10/2013 19:20,2013-10-10,19:20,essex junction,vt,us,light,120,2 minutes,Noiseless&#44 low flying&#44 white&#44 bright constant light.,44.49,-73.11,night
10/10/2013 19:20,2013-10-10,19:20,kenner,la,us,circle,600,10 minutes,2 circle lights moving erratically over Kenner&#44 La.,29.99,-90.24,night
10/10/2013 20:00,2013-10-10,20:00,drexel,oh,us,circle,300,5 minutes,Yellow/orange&#44 sphere/circle that flew across night sky &#44slow speeds then simply vanished &#44 had no blinking lights&#44 was not an airplane,39.75,-84.29,night
10/10/2013 20:00,2013-10-10,20:00,hudson,nh,us,light,5,5 seconds,White&#44 orb above the clouds moving very fast&#44 no flashing lights&#44 zoomed across the sky and disappeared out of sight.,42.76,-71.44,night
10/10/2013 20:30,2013-10-10,20:30,grand blanc,mi,us,light,1200,20 minutes,3 bright lights holding a vertical position over central Michigan&#44 USA.,42.93,-83.63,night
10/10/2013 20:30,2013-10-10,20:30,savage,mn,us,circle,60,1 minute,I saw a sphere shaped object flying east to west moving faster than any conventional aircraft was white to orange in color as it reache,44.78,-93.34,night
10/10/2013 20:32,2013-10-10,20:32,warren,mi,us,sphere,45,45 seconds,Three glowing reddish-orange spheres changing to white lights,42.48,-83.03,night
10/10/2013 20:35,2013-10-10,20:35,canton,mi,us,triangle,180,3 minutes,Black triangle aircraft with white lights on each point&#44 completely silent&#44 seen flying low SW to NE.,42.31,-83.48,night
10/10/2013 21:17,2013-10-10,21:17,lost creek,wv,us,triangle,45,45 seconds,Small triangle with 3 lights floating low over a field then slowly flying away.,39.16,-80.35,night
10/10/2013 21:30,2013-10-10,21:30,hudson,nh,us,light,1,1 second,Very white bright light moving fast inside clouds.,42.76,-71.44,night
10/11/2007 04:40,2007-10-11,04:40,melbourne,ky,us,oval,360,6 minutes,flashing lights spotted near Ohio River,39.03,-84.37,night
10/11/2007 10:10,2007-10-11,10:10,carlton,or,us,cylinder,900,15min,it was not anything thath we have,45.29,-123.18,daylight
10/11/2007 16:00,2007-10-11,16:00,clackamas,or,us,circle,900,15 minutes,Silver circular or sphere-like object flying parallel to I-205 in the Gladstone/Clackamas area.,45.41,-122.57,daylight
10/11/2007 19:28,2007-10-11,19:28,brassall (australia),,,unknown,3600,1 hour +,Accidentally photographed very strange UFO,-27.6,152.75,night
10/11/2007 19:50,2007-10-11,19:50,seattle,wa,us,triangle,10,10 seconds,I saw two orange colored lights&#44 close together but moving independently across the sky&#44 at high rate of speed. Then they disappeared.,47.61,-122.33,night
10/11/2007 20:15,2007-10-11,20:15,tega cay,sc,us,light,1800,30 minutes,Bright white light and then 2 blinking red lights in Western Sky,35.02,-81.03,night
10/11/2007 20:30,2007-10-11,20:30,gulf shores,al,us,disk,1800,30 min.,Brightly lighted Object appeared total of 6-8 times in different locations in night sky over ocean for few seconds and disappeared,30.25,-87.7,night
10/11/2007 23:00,2007-10-11,23:00,london (uk/england),,gb,unknown,300,5 minutes,Yellow lights in formation,51.51,-0.09,night
10/11/2008 00:00,2008-10-11,00:00,klagenfurt (austria),,,chevron,60,1 minute,It came from the direction of the city&#44 when I stood on a hill in total darkness in the countryside. It was moving strangely&#44  not stra,46.63,14.31,night
10/11/2008 04:30,2008-10-11,04:30,brownsville,tx,us,disk,3,3 seconds,I saw a ufo for 3 seconds by my house.,25.9,-97.5,night
10/11/2008 06:00,2008-10-11,06:00,concord,ca,us,light,180,2-3 minutes,Very small lights&#44 very high. moved at great speed and cganged direction. Not aircraft.,37.98,-122.03,daylight
10/11/2008 13:00,2008-10-11,13:00,salisbury,nc,us,sphere,20,20 secounds,7 UNKOWN AIRBORN OBJECT&#39S SEEN OVER  SALISBURY NC..SEARCH GRID WITNESSED&#33&#33..,35.67,-80.47,daylight
10/11/2008 17:30,2008-10-11,17:30,bellmere (australia),,,cylinder,240,4 minutes,Very large long white cylinder object traveling high up and smoothly above storm clouds.,-27.09,152.93,daylight
10/11/2008 19:00,2008-10-11,19:00,bridgeport,ct,us,circle,7200,2 hours,I saw 6 glowing orbs lining up in different formations witin a 2 hour period over Long Island Sound.,41.17,-73.21,night
10/11/2008 19:00,2008-10-11,19:00,dover,md,us,sphere,7200,2 hours?,freinds and familes see UFO,39.51,-76.77,night
10/11/2008 19:00,2008-10-11,19:00,riverside,ca,us,light,60,1 min approx,Bright light moving from NW to SE,33.95,-117.4,night
10/11/2008 19:30,2008-10-11,19:30,naples,fl,us,triangle,30,30 seconds,A dark flying V.,26.14,-81.8,night
10/11/2008 20:30,2008-10-11,20:30,centerville,tx,us,light,900,15 minutes,MYSTERIOUS LIGHTS IN THE TEXAS SKY.,31.26,-95.98,night
10/11/2008 20:30,2008-10-11,20:30,villa park/lombard,il,,changing,300,5 minutes,Several Orange Lights Over Vila Park Lomabrd Areas 10-11-2008,41.89,-87.97,night
10/11/2008 22:20,2008-10-11,22:20,albuquerque,nm,us,fireball,120,2 minutes,Vehicle out of southern sky thought to be shooting star hovers over city.,35.08,-106.65,night
10/11/2008 22:30,2008-10-11,22:30,los angeles,ca,us,triangle,30,30 seconds,Large Triangle sighted over L.A,34.05,-118.24,night
10/11/2009 00:00,2009-10-11,00:00,sedro woolley,wa,,unknown,10,10 seconds,Unusaul flight charactoristics,48.5,-122.24,night
10/11/2009 02:45,2009-10-11,02:45,deer park,ny,us,other,10800,3 hrs,2 Bright Orange lights in the sky moving up&#44 down&#44 and circular motion with shooting streaking trail -looked like shooting star,40.76,-73.33,night
10/11/2009 04:00,2009-10-11,04:00,crisfield,md,us,light,600,5 to 10 min,A bright light moving across the sky getting closer stopped on a dime got brighter and took off with no sounds at all,37.98,-75.85,night
10/11/2009 04:45,2009-10-11,04:45,st. john&#39s (canada),nf,ca,flash,5,>5 seconds,Bending streak of white light over suburban area.,47.55,-52.67,night
10/11/2009 09:45,2009-10-11,09:45,plymouth,mi,us,triangle,20,20 seconds,I was standing on a sidewalk near salem high school where i saw a triangular shaped craft slowly gliding right over my head. my mom jus,42.37,-83.47,daylight
10/11/2009 12:30,2009-10-11,12:30,glendale,az,us,egg,1200,20 minutes,2 eggshaped objects over Glendale Az. near stadium.,33.54,-112.19,daylight
10/11/2009 18:00,2009-10-11,18:00,louisville,ky,us,disk,120,several minutes,strange object photographed over Louisville&#44 Kentucky October 11&#44 2009,38.25,-85.76,night
10/11/2009 18:05,2009-10-11,18:05,west palm beach,fl,us,oval,3,3 seconds,At around 6pm (18:00 hours) I was outside in the backyard of my home with my Canon EOS Rebel XT digital camera taking photographs of na,26.71,-80.04,night
10/11/2009 19:00,2009-10-11,19:00,north smithfield,ri,us,circle,15,10 to 15 seconds,I was watching the sky like I always do on a clear night because you can always see what appear to be stars riding along the night sky.,41.97,-71.55,night
10/11/2009 19:50,2009-10-11,19:50,putnamville,in,us,flash,540,8 - 9 minutes,Two Hovering Aircraft Spotted Around a Strange Haze,39.57,-86.87,night
10/11/2009 21:55,2009-10-11,21:55,madison,wi,us,light,180,3 minutes,Amber orange light moving very slowly&#44 dimming out&#44 shooting away.,43.07,-89.4,night
10/11/2010 00:30,2010-10-11,00:30,redondo beach,ca,us,other,1200,20 min,three lights that changed colors rapidly suspended over the ocean that increased and decreased in intensity often,33.85,-118.39,night
10/11/2010 04:00,2010-10-11,04:00,moxee,wa,,rectangle,1,1 sec and 1 sec,bow shockwave with rectangle craft it was hyperfast,46.55,-120.38,night
10/11/2010 04:50,2010-10-11,04:50,albany,ny,us,oval,120,2 min,Oval metallic object,42.65,-73.76,night
10/11/2010 06:20,2010-10-11,06:20,west palm beach,fl,us,sphere,2400,40 min,Electrical Sphere shape morning sky over Palm Beach Florida,26.71,-80.04,daylight
10/11/2010 12:30,2010-10-11,12:30,orangevale,ca,us,changing,2700,about 45 min,slowmoveing  fire ball in sky,38.68,-121.22,daylight
10/11/2010 19:40,2010-10-11,19:40,cottage grove,mn,us,light,240,3-4 minutes,Craft with two white lights in Minneapolis Approach Pattern that moved down and not forward then disappered behind the tree line.,44.83,-92.94,night
10/11/2010 20:50,2010-10-11,20:50,glendora,ca,us,circle,60,1 min,I was north on a mountain facing south with my friend. We were star gazing and I looked up in the sky at about a 45 degree angle and sa,34.14,-117.86,night
10/11/2010 20:53,2010-10-11,20:53,ramona,ca,us,triangle,5,3-5 seconds,We believed this object to be an airplane on fire,33.04,-116.87,night
10/11/2010 21:35,2010-10-11,21:35,union city,ca,us,other,15,15 seconds,Opposing lights of amber that sliently crossed low in the sky.,37.6,-122.02,night
10/11/2010 23:20,2010-10-11,23:20,clinton township,mi,,fireball,15,15 seconds,Fireball lifted into the sky and dissipated into a cloud.,42.59,-82.92,night
10/11/2011 03:15,2011-10-11,03:15,omaha,il,us,chevron,120,2 min,I noticed the craft as it had just passed over Rt 1. i brought my semi to a stop and shut down the engine. the craft was very large&#44as,37.89,-88.3,night
10/11/2011 08:40,2011-10-11,08:40,henderson,nv,us,other,180,3 minutes,UFO Report:  Date: October 11th&#44 2011 Location: Las Vegas&#44 NV (near Henderson&#44 NV) Time: 8:40 A.M. Near Las Vegas Nevada&#44 I was out,36.04,-114.98,daylight
10/11/2011 15:00,2011-10-11,15:00,cedar city,ut,us,light,8,8 seconds,Bright&#44 white&#44 star-like UFO over Cedar City at 1500 on sunny day.,37.68,-113.06,daylight
10/11/2011 19:40,2011-10-11,19:40,des moines,ia,us,light,90,90 seconds,An unexplained&#44 unidentified flying object.,41.6,-93.61,night
10/11/2011 19:42,2011-10-11,19:42,new bedford,ma,us,circle,1800,30-minutes,At least 25 orange and red fireballs fly over New Bedford&#44 MA&#44 USA,41.64,-70.93,night
10/11/2011 21:00,2011-10-11,21:00,monroe,ct,us,,300,5 min.,Orange Light Formation Over Monroe&#44 CT 10/11/11--Hangs in Sky then Flys Away.,41.33,-73.21,night
10/11/2011 21:10,2011-10-11,21:10,holden beach,nc,us,circle,30,30 seconds,6 orange balls of light over the Atlantic ocean.,33.91,-78.3,night
10/11/2011 23:23,2011-10-11,23:23,harrodsburg,ky,us,unknown,480,8 min,Unknown lights.,37.76,-84.84,night
10/11/2012 01:00,2012-10-11,01:00,worcester,ma,us,unknown,4,4 seconds,Big extremely bright white light hovering in sky,42.26,-71.8,night
10/11/2012 02:45,2012-10-11,02:45,watchung (was my perspective),nj,us,sphere,3600,1 hour about,Orange sphere moving in unbeliveable ways&#44&#44&#44another green spehere near by with rays emerging form it.  Bizarre,40.64,-74.45,night
10/11/2012 04:00,2012-10-11,04:00,tewksbury,ma,us,light,2,2 seconds,Huge white streaking object moving high rate of speeds in night sky,42.61,-71.23,night
10/11/2012 07:00,2012-10-11,07:00,bablyon,ny,,disk,120,2 minutes,Saw a object that was very odd in the sky over the ocean off fire island inlet&#33&#33,40.7,-73.33,daylight
10/11/2012 08:00,2012-10-11,08:00,angola,in,us,cigar,7200,2 hours,4 objects metalic reflecting from rising sun in the east&#44 then witnessed what looked to be 7 more objects in a straight line. Then hear,41.63,-85.0,daylight
10/11/2012 19:30,2012-10-11,19:30,arbutus,md,us,light,300,5 minutes,Moving star and strange man,39.25,-76.7,night
10/11/2012 19:30,2012-10-11,19:30,forty fort,pa,us,fireball,720,12 minutes,Slow moving bright light,41.28,-75.88,night
10/11/2012 19:45,2012-10-11,19:45,saratoga springs,ny,us,circle,300,5 minutes,Brightly lit object&#44 twice the size of a planet&#44  traversed the night sky&#44 dimmed&#44 and disappeared from view.((NUFORC Note:  ISS? PD)),43.08,-73.78,night
10/11/2012 20:00,2012-10-11,20:00,nanticoke,pa,us,diamond,60,~1 minute,UFO sighted over Nanticoke PA,41.21,-76.01,night
10/11/2012 20:30,2012-10-11,20:30,las cruces,nm,us,fireball,120,1-2 minutes,4 fireballs side by side,32.31,-106.78,night
10/11/2012 20:42,2012-10-11,20:42,ravensdale,wa,us,triangle,10,10 seconds,Driving on kent kangley road I observed a triangle arrangement of lights hovering about 100 feet off the ground.  The lights were multi,47.35,-121.98,night
10/11/2012 21:00,2012-10-11,21:00,levittown,pa,us,diamond,60,1 minute,About 9:00 pm&#44 Oct. 11&#44 2012&#44 driving home I first heard strange high-pitched siren-like sound&#44 and rolled down my window to hear what,40.16,-74.83,night
10/11/2012 21:01,2012-10-11,21:01,phoenix,az,us,sphere,30,30 seconds,10/11/12  Phoenix&#44 AZ  Sphere  30 sec   Yellowish-orange flashing sphere seen by myself        10/12/12,33.45,-112.07,night
10/11/2012 22:15,2012-10-11,22:15,blue island,il,us,circle,45,45 seconds,Red circular object surrounded by yellow glow flying w/no sound quickly coming out of east turning southbound,41.66,-87.68,night
10/11/2013 01:00,2013-10-11,01:00,saginaw,mi,us,chevron,4,4 seconds,10 or so dimly lit white lights in a large arrow shape formation moving at high rate of speed.,43.42,-83.95,night
10/11/2013 03:00,2013-10-11,03:00,hamilton (canada),on,ca,cylinder,3600,0300:0400,Enlarged still frame pics of the video show strage shapes and strange colors.,43.25,-79.83,night
10/11/2013 06:13,2013-10-11,06:13,ankeny,ia,us,circle,120,2 minutes,Two slow moving star-like objects suddenly accelerated to light speed heading towards Jupiter,41.73,-93.61,daylight
10/11/2013 09:05,2013-10-11,09:05,palm beach gardens,fl,us,light,15,10-15 seconds,Five orange flying objects in the nights sky and no sound.,26.82,-80.14,daylight
10/11/2013 16:01,2013-10-11,16:01,pickering (canada),on,ca,circle,300,5 minutes,Glowing blue sphere in Ontario&#44 Canada.,43.87,-79.03,daylight
10/11/2013 16:35,2013-10-11,16:35,kalamazoo,mi,us,fireball,600,~10 minutes,Massive caravan of a hundred red/orange fireballs moving from west to east at a steady rate in formation for at least ten minutes.,42.29,-85.59,daylight
10/11/2013 19:00,2013-10-11,19:00,lawrence,ks,us,unknown,240,2-4 minutes,Silent blue and white lights of craft object change color&#44 approach myself and boyfriend&#44 before changing into buzzing&#44 everyday plane,38.97,-95.24,night
10/11/2013 19:20,2013-10-11,19:20,north cincinnati,oh,,fireball,600,10 minutes,Some sort of fireball came down from the sky very rapidly soon to turn into 3 flying disc that where lit up (clearly not stars) they se,39.1,-84.51,night
10/11/2013 19:50,2013-10-11,19:50,essex junction,vt,us,light,60,60 seconds,4 or 5 Orange Lights in Vermont Sky,44.49,-73.11,night
10/11/2013 20:00,2013-10-11,20:00,cincinnati,oh,us,circle,300,4-5 minutes,Glowing Orange Fireball/Lights Seen at Turpin HS Football Game.,39.16,-84.46,night
10/11/2013 20:00,2013-10-11,20:00,cincinnati,oh,us,fireball,240,4 minutes,Cincinnati fire ball in the sky?,39.16,-84.46,night
10/11/2013 20:00,2013-10-11,20:00,naples,fl,us,light,7200,few hours,Circle of Different color flashing light over gulf in naples,26.14,-81.8,night
10/11/2013 20:15,2013-10-11,20:15,bonaie,ga,,light,300,3-5 minutes,15-25 red/orange lights moving at a low altitude in the same pattern with no sound at all.,32.54,-83.6,night
10/11/2013 20:15,2013-10-11,20:15,cincinnati,oh,us,fireball,60,1 minute,3 fireball type objects close to downtown Cincinnati.,39.16,-84.46,night
10/11/2013 20:15,2013-10-11,20:15,union,ky,us,fireball,300,5 minutes,amber fireball descending&#44splits into 3 objects&#44stops&#44they hover above ground with erratic movements,38.95,-84.68,night
10/11/2013 20:20,2013-10-11,20:20,hubbardston,ma,us,fireball,60,1 minute,4 orange orbs zig zgging across the sky.  Quick movements forward and aft and side to side.,42.47,-72.01,night
10/11/2013 20:45,2013-10-11,20:45,covington,ga,us,light,300,5 minutes,Saw a bunch of low-altitude lights drifting overhead.,33.6,-83.86,night
10/11/2013 21:00,2013-10-11,21:00,drexel,oh,us,sphere,180,3 minutes,Blue white streak in sky&#44 2 orange orbs splitting. seems like it landed.,39.75,-84.29,night
10/11/2013 21:00,2013-10-11,21:00,fayetteville,ny,us,chevron,90,90 seconds,Brilliant slow moving light in fayetteville ny.,43.03,-76.0,night
10/11/2013 22:00,2013-10-11,22:00,jupiter,fl,us,light,900,15 minutes,Groups of glowing orange objects moving randomly from east to west over Jupiter Inlet area at approximately 10:00 pm Oct 11&#44 2013.,26.93,-80.09,night
10/11/2013 22:00,2013-10-11,22:00,melbourne,fl,us,sphere,300,5 minutes,At or around 22:00 hours my Mother called me outside to look at something My Father and I walked out the front door and observed a larg,28.08,-80.61,night
10/11/2013 22:08,2013-10-11,22:08,dresser,wi,us,sphere,60,1 minutes,Large Orange Sphere over Polk county Wisconsin.,45.36,-92.63,night
10/11/2013 22:10,2013-10-11,22:10,lombard,il,us,formation,60,1 minute,5-8 orange lights over suburban Chicago,41.88,-88.01,night
10/11/2013 22:18,2013-10-11,22:18,windsor (canada),on,ca,light,300,3-5 minutes,5 orange lights seen in sky over windsor.,45.58,-72.0,night
10/11/2013 23:00,2013-10-11,23:00,north canton,oh,us,fireball,10,10 seconds,Fireball over the Strip.,40.88,-81.4,night
10/11/2013 23:15,2013-10-11,23:15,pinckney,mi,us,fireball,2,2 seconds,Large orange fireball observed over Hell&#44 Michigan&#44 traveling from due south to due north directly overhead.,42.46,-83.95,night
10/1/2007 00:00,2007-10-01,00:00,escondido,ca,us,diamond,120,2 minutes,Thought it was a satellite moving across the sky until it went straight out of the sky till we could not see it anymore.,33.12,-117.09,night
10/1/2007 00:00,2007-10-01,00:00,los angeles,ca,us,flash,900,15min,Me and my friend were facing north-west a few minutes after midnight and saw two or maybe four objects flashing bright red and white. T,34.05,-118.24,night
10/1/2007 00:02,2007-10-01,00:02,dayton,oh,us,oval,5,5 seconds,UFO seen in Dayton&#44 Ohio near Huber Heights,39.76,-84.19,night
10/1/2007 01:00,2007-10-01,01:00,barrie (canada),on,ca,circle,60,1min,the ufos went over my house  500 Lights On Object0: Yes,44.38,-79.7,night
10/1/2007 02:00,2007-10-01,02:00,adelaide  (south australia),,au,oval,300,5 mins,Dancing &amp; Flashing UFO in Glenelg&#44 South Australia,-34.93,138.6,night
10/1/2007 02:30,2007-10-01,02:30,sautee nacoochee,ga,,light,10800,3 hours,3 fast blinking&#44 multicolored lights that lasted for over two hours and moved only over long durations of time to the naked eye.,34.68,-83.67,night
10/1/2007 09:50,2007-10-01,09:50,charlotte,nc,us,light,1200,20min,4 DOTS OF LIGHT AROUND MOON  MID MORNING TODAY,35.23,-80.84,daylight
10/1/2007 13:00,2007-10-01,13:00,litchfield,il,us,oval,2,a few seconds,Seen shiny aluminum colored craft @ Yeager Lake in Litchfield,39.18,-89.65,daylight
10/1/2007 17:10,2007-10-01,17:10,granville,oh,us,sphere,120,2 minutes,Hovering bright white light turns horizontally mid-air and becomes silvery dome-shaped object,40.07,-82.52,daylight
10/1/2007 19:00,2007-10-01,19:00,beulaville,nc,us,triangle,5,5 sec,Green Glowing Triangular Craft,34.92,-77.77,night
10/1/2007 20:00,2007-10-01,20:00,ewa beach,hi,us,light,600,10 minutes,Lights flickering in the sky.,21.32,-158.01,night
10/1/2007 20:00,2007-10-01,20:00,north battleford (canada),sk,ca,disk,60,1 min,I was driving with my family and we looked up and seen a ufo almost directly above us.,52.77,-108.28,night
10/1/2007 20:00,2007-10-01,20:00,tryon,nc,us,light,10,10 seconds,Strange lights in NC sky.,35.21,-82.24,night
10/1/2007 21:00,2007-10-01,21:00,ballinger,tx,us,unknown,300,5 minutes,Loud Roar&#44 Bright Orange Lights,31.74,-99.95,night
10/1/2007 21:00,2007-10-01,21:00,deer park,ny,us,other,240,4 mins,Moving star over eastern New York,40.76,-73.33,night
10/1/2007 21:00,2007-10-01,21:00,sanford,fl,us,triangle,120,2mins,Black Triangle shaped craft with 3lights on the bottom. (fast&#44smooth flying craft),28.8,-81.27,night
10/1/2007 22:30,2007-10-01,22:30,dublin,ca,us,flash,2,seconds,Ball of light moving fast across the the sky,37.7,-121.93,night
10/1/2008 00:00,2008-10-01,00:00,conway,ar,us,triangle,600,10 minutes,Massive/low/silent black triangle cruises back and forth over downtown Conway,35.09,-92.44,night
10/1/2008 00:24,2008-10-01,00:24,kuala lumpur (malaysia),,,disk,300,5mins,A huge &quot;creature&quot; built up with a line of bright line with a red light at the middle top of it&#44 appears in the dark clear Malaysia sky&#33,3.14,101.69,night
10/1/2008 01:00,2008-10-01,01:00,bryan,oh,us,cylinder,120,2 minuites,It was cylinder shaped and had lights all around it. 500 Lights On Object0: Yes,41.47,-84.55,night
10/1/2008 01:00,2008-10-01,01:00,merrick,ny,us,disk,5,5 seconds,Large metalic object hovering 30-50ft off the ground&#44short beam coming down to ground.,40.66,-73.55,night
10/1/2008 05:00,2008-10-01,05:00,huntington,wv,us,cylinder,600,10 minuts,cylinder shaped object with no lights or sound with plane following behind it,38.42,-82.45,night
10/1/2008 06:20,2008-10-01,06:20,lynchburg,va,us,light,30,30 seconds,I was walking my dog this morning when I saw a very bright orange light approaching from the south.,37.41,-79.14,daylight
10/1/2008 09:00,2008-10-01,09:00,lanagan,mo,us,light,900,15 minutes,I reported this same object last week &#44so far three times i have seen this blinking object which moves horizontially and does tight cir,36.61,-94.45,daylight
10/1/2008 09:45,2008-10-01,09:45,dallas,tx,us,oval,300,5 min,UFO I THINK,32.78,-96.8,daylight
10/1/2008 11:00,2008-10-01,11:00,pell city,al,us,cigar,300,5 min.,Very high&#44 cigar shaped UFO moving at incredible speeds.,33.59,-86.29,daylight
10/1/2008 19:00,2008-10-01,19:00,warwick,ri,us,circle,600,ten minutes,Myself and two of my friends were driving down the road to pick up my girlfriend when my friend in the passenger seat noticed two unide,41.7,-71.42,night
10/1/2008 19:12,2008-10-01,19:12,bonham,tx,us,egg,300,5 minutes,Silver egg shape over six houses.  ((NUFORC Note:  Possible hoax??  PD)),33.58,-96.18,night
10/1/2008 19:40,2008-10-01,19:40,delta (canada),bc,ca,disk,5,5 seconds,Lighted disk stops overhead,50.18,-98.32,night
10/1/2008 20:00,2008-10-01,20:00,cabazon,ca,us,light,1200,20 min,hi&#44 last night on oct 1&#44 2008 i saw 2 star sized objects that went extremely fast in the night sky in so.calif.(cabazon) at about 8:00p,33.92,-116.79,night
10/1/2008 20:00,2008-10-01,20:00,glenrock,wy,us,unknown,1200,several hours,Stationary object just above NE horizon with flashing red&#44 green and white lights.,42.86,-105.87,night
10/1/2008 20:00,2008-10-01,20:00,marysville,wa,us,circle,1800,aprox 30 minutes,2 unidentified objects above highway 2 in marysville washington,48.05,-122.18,night
10/1/2008 20:00,2008-10-01,20:00,texas city,tx,us,other,2,2 seconds,very strange&#44 unexplainable sound,29.38,-94.9,night
10/1/2008 20:00,2008-10-01,20:00,wilson,nc,us,circle,600,10 minutes,Star shaped light blinking and rotating - then two of same lights after cloud went over and began to move,35.72,-77.92,night
10/1/2008 20:03,2008-10-01,20:03,idaho falls,id,us,light,15,15 seconds,Stationary lights in the path of the ISS,43.47,-112.03,night
10/1/2008 20:45,2008-10-01,20:45,leavenworth,wa,us,light,120,2 min,Big Light in the West Sky over Leavenworth Washington,47.6,-120.66,night
10/1/2008 20:45,2008-10-01,20:45,renton,wa,us,light,600,10 mins,lights seen at night,47.48,-122.22,night
10/1/2008 21:00,2008-10-01,21:00,wellington,al,us,light,120,minutes,a light over the mountain,33.82,-85.89,night
10/1/2008 21:00,2008-10-01,21:00,yerevan (armenia),,,unknown,60,1 minute,Red light appears in night sky and disappears.,40.18,44.52,night
10/1/2008 21:30,2008-10-01,21:30,lacey,wa,us,unknown,4,3 to 4 sec,Like a hot ember emitting sparks while leaving a long trail like a shooting star.,47.03,-122.82,night
10/1/2008 22:00,2008-10-01,22:00,garrett,in,us,triangle,4,.5 hour,Triangular shape with an array of lights and unusual amount of silent aircraft in the sky.,41.35,-85.14,night
10/1/2008 22:30,2008-10-01,22:30,arlington,tx,us,sphere,600,10 minutes,Large&#44 very well lit sphere shaped object flying very low over my neighborhood then disappeared,32.74,-97.11,night
10/1/2008 22:45,2008-10-01,22:45,sunnyvale,ca,us,other,20,20 seconds,flashing object with erratic motion,37.37,-122.04,night
10/1/2008 22:55,2008-10-01,22:55,kingsport,tn,us,triangle,3,3 seconds,East Tennessee&#44 3 orb mass in the sky,36.55,-82.56,night
10/1/2009 00:00,2009-10-01,00:00,grafton,wv,,light,20,20 seconds,Orange light hovering from east to west over town,39.34,-80.02,night
10/1/2009 04:30,2009-10-01,04:30,hogansville,ga,us,disk,10,10 seconds,Close viewing of disk-shaped ufo with colored lights,33.17,-84.92,night
10/1/2009 08:00,2009-10-01,08:00,pawtucket,ri,us,cylinder,600,10 minutes,Hovered over Pawtucket&#44 RI and had red flashing lights at the bottom,41.88,-71.38,daylight
10/1/2009 09:00,2009-10-01,09:00,canton,mi,us,triangle,3600,1 hour,Triangular shaped UFO with lights at corners hovering at cloud height over home,42.31,-83.48,daylight
10/1/2009 15:38,2009-10-01,15:38,whitefield,ok,us,light,2,seconds,Looked like a light that appeared to be moving upwards.,35.25,-95.24,daylight
10/1/2009 18:00,2009-10-01,18:00,memphis,tn,us,oval,300,twice - 1-5 minute sighti,Day and Night - Saw object twice c.2009.  3-witnesses.  Very similar to that object in the Tulsa OK sighting c.1965.,35.15,-90.05,night
10/1/2009 19:00,2009-10-01,19:00,grafton,wv,,sphere,120,2 minutes,Orange Orb in West Virginia,39.34,-80.02,night
10/1/2009 20:00,2009-10-01,20:00,providence,ri,us,disk,300,5 minutes,saucer with red and blue lights over providence&#44 RI,41.82,-71.41,night
10/1/2009 20:30,2009-10-01,20:30,beaver,oh,us,light,10800,3 hrs,a white light moving in a circle.,39.03,-82.82,night
10/1/2009 22:30,2009-10-01,22:30,belmont,ms,us,triangle,120,2mins,Triangular object with 3 lights&#44 one in middle blinking.,34.51,-88.21,night
10/1/2009 23:00,2009-10-01,23:00,belleview,fl,us,circle,600,10 mins,Flashing Blue Orb over southern Marion county FL.,29.06,-82.06,night
10/1/2009 23:00,2009-10-01,23:00,fairfield,ct,us,light,20,20 seconds,2 seperate observations. Fairfield&#44 CT,41.14,-73.26,night
10/1/2010 00:00,2010-10-01,00:00,delray beach,fl,us,other,180,3 mins.,Bright white light&#44 shimmering green then red,26.46,-80.07,night
10/1/2010 06:25,2010-10-01,06:25,aripeka,fl,us,light,8,8 sec,White light (star) traveling very fast in sky.,28.43,-82.66,daylight
10/1/2010 08:03,2010-10-01,08:03,james island,sc,,triangle,120,2 minutes (driving on the,10/1/10    James Island Connector Vshaped aircraft hovering over the JI Connector at 8: 12 pm,32.75,-79.95,daylight
10/1/2010 08:30,2010-10-01,08:30,middleton,wi,us,other,180,3 minutes ?,Glowing orange barrel-shaped objects in sky over town of Middleton&#44 WI,43.1,-89.5,daylight
10/1/2010 09:30,2010-10-01,09:30,spotsylvania,va,us,circle,1800,30 minutes,blue&#44 red&#44 green&#44 and bright white light hovering over field near Thornburg Va food lion.,38.2,-77.59,daylight
10/1/2010 10:20,2010-10-01,10:20,sterling heights/utica border,mi,,sphere,300,5 min,5 glowing orange orbs/no sound/ rising in sky and heading south west then dissapearing within 5 min,43.11,-75.13,daylight
10/1/2010 12:16,2010-10-01,12:16,waxahachie,tx,us,disk,1,1 second,Disk Shaped Object photographed near Waxahachie Texas,32.39,-96.85,daylight
10/1/2010 16:30,2010-10-01,16:30,dallas,tx,us,other,15,brief,Soundless hovering airplane,32.78,-96.8,daylight
10/1/2010 18:30,2010-10-01,18:30,strasburg,va,us,cigar,300,5 mins,2 cigar shaped white objects viewed in Shenandoah Valley&#44 VA,38.99,-78.36,night
10/1/2010 19:45,2010-10-01,19:45,fayetteville,nc,us,light,300,5 min,FAST RED LIGHT WITH SLOWER BUT LARGER WHITE LIGHTS FALLING,35.05,-78.88,night
10/1/2010 20:45,2010-10-01,20:45,brunswick,oh,us,triangle,600,10 min,Triangle craft with bright light changes colors and moves like helicopter.,41.24,-81.84,night
10/1/2010 21:00,2010-10-01,21:00,arlington,wa,us,oval,300,5 minutes,Blue and red jelly bean shaped craft&#44 hovering over Arlington Airport&#44 Washington State.,48.2,-122.12,night
10/1/2010 21:00,2010-10-01,21:00,saskatoon (canada),sk,ca,changing,60,30-60 seconds,hazy yellow-orange light(s) that changed shape and moved fluidly,52.13,-106.67,night
10/1/2010 23:00,2010-10-01,23:00,corona,ca,us,unknown,30,30 seconds,Star igniting accelerating and leaving a light beam behind.,33.88,-117.57,night
10/1/2010 23:00,2010-10-01,23:00,rock spring,ga,us,light,300,5 minutes,Fast flying glowing light.,34.82,-85.24,night
10/1/2011 00:00,2011-10-01,00:00,cabot/lonoke,ar,,circle,3600,1+ hrs,A bright object sighted above our house that moves back and forth slowly and hovers.  ((NUFORC Note:  Possible star?  PD)),34.97,-92.02,night
10/1/2011 00:00,2011-10-01,00:00,staten island (over),ny,,unknown,600,10 minutes,Huge bright fireball descends over Staten Island.,40.58,-74.15,night
10/1/2011 00:53,2011-10-01,00:53,thunder bay (canada),on,ca,other,5,4-5 seconds,0:53 or 12:53 am EST&#44 Saturday October 1st 2011&#44 Thunder Bay&#44 ON&#44 T like figure&#44 4 seconds&#44 dim orange lights&#44 silent  500 Lights On Ob,48.4,-89.23,night
10/1/2011 05:30,2011-10-01,05:30,alligator point,fl,,unknown,7200,2 hours,Bright multicolored object with flashing red&#44 blue&#44 green and white lights&#44 stationary in sky.  ((NUFORC Note:  Twinkling star?  PD)),29.81,-84.86,night
10/1/2011 06:00,2011-10-01,06:00,san benito,tx,us,triangle,10,10 secunds,south texas 1 oct. v shaped silent object traveling south east dim white lights,26.13,-97.63,daylight
10/1/2011 09:30,2011-10-01,09:30,brownwood,tx,us,unknown,1500,25 min,Orange lights with blinking white lights swarming around.,31.71,-98.99,daylight
10/1/2011 13:00,2011-10-01,13:00,clinton,ms,us,circle,300,5 mins.,Jet and object flying side by side,32.34,-90.32,daylight
10/1/2011 16:00,2011-10-01,16:00,goshen,ca,us,oval,60,1 minute,Bright round light in sky moving slowly,36.35,-119.42,daylight
10/1/2011 17:00,2011-10-01,17:00,carrieres sous poissy (france),,,cigar,180,3 minutes,Huge grey cylinder rotating going down to my house from high altitude with no noise,48.95,2.04,daylight
10/1/2011 20:00,2011-10-01,20:00,linn (outside of),mo,us,unknown,5,5 seconds,Huge green flashing light low to the ground in missouri,38.49,-91.85,night
10/1/2011 20:00,2011-10-01,20:00,wilmington,nc,us,triangle,300,2-5 minutes,Triangle... very dim lights&#44 no noise&#44 around all outer edges&#44 moving slowly&#44 very low... went out of sight over UNCW campus,34.23,-77.94,night
10/1/2011 20:15,2011-10-01,20:15,cincinnati,oh,us,sphere,900,15 min.,2 Glowing spheres over Cincinnati,39.16,-84.46,night
10/1/2011 20:30,2011-10-01,20:30,palatine,il,us,light,90,90 sec,Orange and Red light,42.11,-88.03,night
10/1/2011 21:00,2011-10-01,21:00,hamburg,ca,us,light,300,5 minutes,Extremely bright twin lights in night sky - moved off in unison.,41.78,-123.06,night
10/1/2011 21:20,2011-10-01,21:20,carlsbad,ca,us,fireball,10,10 seconds,I was driving south on the 5 Freeway this evening.  I was passing Canon Road in Carlsbad&#44 San Diego County&#44 California.  I saw 3 bright,33.16,-117.35,night
10/1/2011 21:43,2011-10-01,21:43,kansas city,mo,us,fireball,45,45 seconds,Unusual fireball-like orb moving in the sky&#44 and suddenly disappears,39.1,-94.58,night
10/1/2011 21:43,2011-10-01,21:43,kansas city,mo,us,fireball,60,60 seconds,Orange fireball crosses the sky in Kansas City.,39.1,-94.58,night
10/1/2011 21:50,2011-10-01,21:50,tenino,wa,us,light,180,2-3 minutes,Orange ball of light hovers and then ascends and suddenly disappears,46.86,-122.85,night
10/1/2011 22:00,2011-10-01,22:00,mccomb,ms,us,rectangle,10,10 seconds,On a clear night while laying on a table witnessed a silent rectangle fully visible craft cross the sky aprrox.500&quot; over trees,31.24,-90.45,night
10/1/2011 23:00,2011-10-01,23:00,greenville area,sc,,light,14400,3-4 hrs,Red&#44 blue&#44 white lights seen hovering in the sky in the vicinity of the Anderson/Greenville area. ((NUFORC Note:  Possible star??  PD)),34.82,-82.41,night
10/1/2011 23:11,2011-10-01,23:11,conyers,ga,us,light,3600,an hour or so,I see this almost every night when i go outside at the same time. it is this light that changes from hreen to blue to red.  ((Starr??)),33.67,-84.02,night
10/1/2011 23:30,2011-10-01,23:30,captiva island,fl,,fireball,60,60 seconds,On Saturday night&#44 October 1&#44 2011 we observed a level fly by of what looked like an aircraft on fire. It seemed low in the sky&#44 under,26.53,-82.19,night
10/1/2011 23:41,2011-10-01,23:41,bluffton,sc,,unknown,20,20 seconds,Ball of red/yellow light followed by a trail of fire falls to earth in or around Bluffton&#44 SC,32.24,-80.86,night
10/1/2011 23:57,2011-10-01,23:57,homestead,fl,us,formation,35,35 seconds,I am familiar with several types of planes&#44  I worked at a NY airport for a number of years and I am a fan of military planes&#44 this sig,25.47,-80.48,night
10/1/2012 01:00,2012-10-01,01:00,richmond,tx,us,unknown,300,5 minutes,Driving around when me and my friend saw a bright BRIGHT white light from about 2/12 miles away. Started driving towards it it as it ju,29.58,-95.76,night
10/1/2012 01:50,2012-10-01,01:50,colorado springs,co,us,light,9,9 seconds,Falling bright light,38.83,-104.82,night
10/1/2012 02:00,2012-10-01,02:00,surprise,az,us,light,9,more than half an hour,Flickering color changing lights in SE Phoenix sky.  ((NUFORC Note:  Probably a sighting of a &quot;twinkling&quot; star.  PD)),33.63,-112.33,night
10/1/2012 06:30,2012-10-01,06:30,sarasota,fl,us,formation,10,10 seconds,Dim lights,27.34,-82.53,daylight
10/1/2012 08:30,2012-10-01,08:30,hawthorne/los angeles,ca,,circle,420,7 minutes,Metallic Stationary Object,33.92,-118.35,daylight
10/1/2012 09:00,2012-10-01,09:00,vinton/roanoke,va,,other,600,10 minutes,5 to 8 orange light  formation in the sky.,37.28,-79.9,daylight
10/1/2012 11:20,2012-10-01,11:20,welland (canada),on,ca,fireball,2700,45 minutes,Groups of 2 Orange/yellow balls shot through the sky in a set path and disappeared over and over,42.98,-79.25,daylight
10/1/2012 17:30,2012-10-01,17:30,port hueneme,ca,us,light,1800,30 minutes,Light&#44 Shape and near two bases,34.15,-119.19,daylight
10/1/2012 19:30,2012-10-01,19:30,hinsdale,il,us,fireball,180,3 minutes,Orange fireball quickly ascending in sky in West suburbs of Chicago,41.8,-87.94,night
10/1/2012 20:00,2012-10-01,20:00,eugene,or,us,light,180,hours,Star looking lights with flashing red&#44 green&#44 and purple lights that just hover around &#33 NOT GOING ANYWHERE&#33  ((Star?)),44.05,-123.09,night
10/1/2012 20:00,2012-10-01,20:00,fontana,ca,us,fireball,900,15 minutes,Fireballs in Fontana&#44 CA.,34.09,-117.43,night
10/1/2012 20:00,2012-10-01,20:00,racine,wi,us,other,900,15 minutes,Odd lights in formation appering and disappering.,42.73,-87.78,night
10/1/2012 20:00,2012-10-01,20:00,sunfield,mi,us,unknown,300,5 minutes,Flying object coming out of field. Hovering for 5 mins. Then leaving.,42.76,-84.99,night
10/1/2012 20:10,2012-10-01,20:10,capitola,ca,us,light,60,1 minute,Bright red torch-like object seen ascending rapidly&#44 making a right angle turn&#44 and disappearing from view in Capitola&#44 CA,36.98,-121.95,night
10/1/2012 22:30,2012-10-01,22:30,sauk centre,mn,us,triangle,2700,45 minutes,2 weird objects fly over our house and make no noise and about 2 miles away just appear to stop for about 45 min.,45.74,-94.95,night
10/1/2012 23:00,2012-10-01,23:00,huntington,in,us,fireball,180,3 minutes,Very bright it hoverd and then sped off silently and was pulsating in rythem did not varie.,40.88,-85.5,night
10/1/2012 24:00,2012-10-01,00:00,novi,mi,us,triangle,300,5 minutes,V shaped and 8 big and very brite lights&#44moving very slow,42.48,-83.48,night
10/1/2013 03:00,2013-10-01,03:00,colorado springs,co,us,triangle,5400,90 minutes,Red&#44 blue&#44 white and green high in sky; didn&#39t move.,38.83,-104.82,night
10/1/2013 06:35,2013-10-01,06:35,bel air,md,us,flash,4,2-4 seconds,Flashing ball that goes out and continues as a black dot at slower speed then a meteor.,39.54,-76.35,daylight
10/1/2013 07:40,2013-10-01,07:40,bakersfield,ca,us,circle,30,30 seconds,There was a metal looking star hovering several miles s/w of Bakersfield&#44 Ca. my friend&#44 girlfriend&#44 and i were driving to the park an,35.37,-119.02,daylight
10/1/2013 08:38,2013-10-01,08:38,furlong,nj,,other,120,1-2 minutes,Shape with lights hovering then inching then speeding in a direction.,40.3,-75.08,daylight
10/1/2013 09:00,2013-10-01,09:00,boulder/niwot,co,,disk,300,5 minutes,Metallic object floating above Boulder.,40.1,-105.17,daylight
10/1/2013 09:42,2013-10-01,09:42,cobb mountain,ca,,fireball,1500,25 minutes,Bright round orange/red fireball.,38.81,-122.74,daylight
10/1/2013 09:43,2013-10-01,09:43,muncie,in,us,triangle,7200,2 hours,Bright Triangular Light Orb in the sky different flashing lights and appears closer each day.,40.19,-85.39,daylight
10/1/2013 12:30,2013-10-01,12:30,pittsburgh,pa,us,unknown,60,1 minute,Driving across the Glenfied Bridge&#44 northbound&#44 saw an odd shape as i was looking southeast down the Ohio. It wasn&#39t a plane. It wa,40.44,-80.0,daylight
10/1/2013 12:30,2013-10-01,12:30,pittsburgh,pa,us,unknown,60,<i minute,I&#39m conflicted. I had another sighting&#44 and I was challenged by you of filing a false report.  ((NUFORC Note:  See comment below.  PD),40.44,-80.0,daylight
10/1/2013 12:40,2013-10-01,12:40,lincoln,ri,,light,4,4 seconds,Two white dots crossing paths around Lincoln and Providence RI.,41.92,-71.44,daylight
10/1/2013 18:30,2013-10-01,18:30,boulder,co,us,light,240,3-4 minutes,Three long white crescent shaped moving lights moving in a half circle.,40.02,-105.27,night
10/1/2013 19:15,2013-10-01,19:15,thibodaux,la,us,unknown,300,5 minutes,Very bright white lights 4 all together moving from southeast to west flying low no noise.,29.8,-90.82,night
10/1/2013 19:20,2013-10-01,19:20,webster,ny,us,sphere,1800,30 minutes,Yellow/Orangish Balls streaking across the sky&#44 no sound from them at all&#44 and no tail.,43.21,-77.43,night
10/1/2013 19:25,2013-10-01,19:25,southwest ranches,fl,us,light,300,5 minutes,Brilliant white light in SW Sky stationary over 7 minutes then vanishes.  Not an airplane&#33,26.06,-80.34,night
10/1/2013 20:00,2013-10-01,20:00,tampa,fl,us,light,3600,45-60 minutes,Intensely bright light sphere high up in the sky over the Gulf of Mexico.,27.95,-82.46,night
10/1/2013 21:30,2013-10-01,21:30,cumming,ga,us,fireball,1200,20 minutes,3 very slow-moving sparking&#44 flaming meteor looking objects starting on 1 side of the horizon and ended in the same spot on the other.,34.21,-84.14,night
10/1/2013 21:40,2013-10-01,21:40,sneedville,tn,us,circle,90,1-1.5 minutes,Large round bright white light moved away and upward for 1-1.5 min before completely disappearing.,36.53,-83.22,night
10/1/2013 22:10,2013-10-01,22:10,white lake,mi,us,unknown,900,15 minutes,Two seperate objects far off&#44 with a white light that turned off an on every four or five minutes then disappeared.,42.69,-83.55,night
10/1/2013 22:30,2013-10-01,22:30,waterloo,ia,us,triangle,60,1 minute,My girlfriend and I witnessed a bright orange triangular light in the sky.,42.49,-92.34,night
10/1/2013 22:45,2013-10-01,22:45,middle island (long island),ny,us,fireball,1200,20 minutes,Orange Glowing Lights over East Long Island.,40.88,-72.94,night
10/1/2013 23:00,2013-10-01,23:00,london (uk/england),,gb,fireball,30,30 seconds,Orange fireball seen hovering in London sky before vanishing.,51.51,-0.09,night
10/1/2013 23:30,2013-10-01,23:30,arlington,wi,us,unknown,600,10 minutes,Strange Green/Purple and Orange Dancing Lights Above Farm Field.,43.34,-89.38,night
10/12/2007 00:20,2007-10-12,00:20,ogden,ut,us,triangle,10,10 seconds,Large Triangle space craft seen from Northern Utah Traveling South out of the North sky 10-12-07 at 12:20am,41.22,-111.97,night
10/12/2007 01:45,2007-10-12,01:45,sedalia,mo,us,formation,15,15 seconds,2 Golden Round Lights Simply Vanish before our eyes,38.7,-93.23,night
10/12/2007 05:30,2007-10-12,05:30,new york city,ny,us,light,1800,30 minutes,bright light of oval shaped object hovers in sky over Manhattan in early morning --lasted about half hour ((NUFORC Note:  Venus.  PD)),40.71,-74.01,night
10/12/2007 08:15,2007-10-12,08:15,arcadia,fl,us,formation,65,65 seconds,It was real and I have NEVER seen anthing like it&#44 I reported it to the police who came to my house and took an affidavit,27.22,-81.86,daylight
10/12/2007 14:35,2007-10-12,14:35,fort washington,pa,us,sphere,300,3-5 min.,Highly reflective object gliding across sky,40.14,-75.21,daylight
10/12/2007 19:20,2007-10-12,19:20,west los angeles,ca,us,unknown,600,10 minutes,un-steady flight as if it was shaking almost moving left to right flying forward single slow flashing red light not like cesna or multi,34.05,-118.24,night
10/12/2007 20:00,2007-10-12,20:00,indiana/ohio (in flight),in,,disk,300,5 minutes,Lights over Indiana or Ohio 10/12/2007,37.06,-88.53,night
10/12/2007 21:30,2007-10-12,21:30,appleton,wi,us,circle,300,over a half hour,Blue circluar ufo,44.26,-88.42,night
10/12/2007 22:00,2007-10-12,22:00,irvine,ca,us,,600,10 min,Lights in Irvine October 2007: Hoax,33.67,-117.82,night
10/12/2007 22:00,2007-10-12,22:00,irvine,ca,us,circle,600,10 min,Bright white circles of light on one side&#44 red light on trailing edge of other side. Amazing flight patterns.,33.67,-117.82,night
10/12/2007 22:00,2007-10-12,22:00,york,pa,us,oval,3300,55 minutes,Another sighting in York PA&#33&#33&#33,39.96,-76.73,night
10/12/2007 23:00,2007-10-12,23:00,rogers,ar,us,unknown,172800,1-2 days,((HOAX??))  abduction. 500 Lights On Object0: Yes,36.33,-94.12,night
10/12/2007 23:30,2007-10-12,23:30,dingmans ferry,pa,us,triangle,3,3 seconds,While stargazing this strange object appeared,41.22,-74.87,night
10/12/2008 05:20,2008-10-12,05:20,islip (central),ny,us,light,35,35 sec,a white tiny light moving thru the sky,40.73,-73.21,night
10/12/2008 08:00,2008-10-12,08:00,russellton,pa,us,cigar,50,50 seconds,Cigar shaped&#44 low flying&#44 and decent size craft blicking red light.,40.61,-79.84,daylight
10/12/2008 09:00,2008-10-12,09:00,reading,pa,us,diamond,300,5min,Sightings Over Reading Pa Area,40.34,-75.93,daylight
10/12/2008 09:00,2008-10-12,09:00,rio rancho,nm,us,disk,90,30 seconds-1 minute,The UFO was a sacer shaped&#44 silver object.,35.23,-106.66,daylight
10/12/2008 12:00,2008-10-12,12:00,larksville,pa,us,other,600,10 min.,We saw craft at close range with all detail on a clear sunny day at 12:00 noon.,41.24,-75.93,daylight
10/12/2008 15:10,2008-10-12,15:10,nicholasville,ky,us,circle,900,12 - 15 min.,White balls of light moving across the sky.,37.88,-84.57,daylight
10/12/2008 19:20,2008-10-12,19:20,tacoma,wa,us,light,420,approx. 7 min.,Orange&#44 slow-moving light&#44 appeared to backfire and shoot out flames/sparks.Stopped at some points.,47.25,-122.44,night
10/12/2008 20:00,2008-10-12,20:00,mckinney,tx,us,light,300,5 minutes,Two White Separated Lights in Southern Sky,33.2,-96.62,night
10/12/2008 21:00,2008-10-12,21:00,manchester,tn,us,changing,120,couple minutes,Shape changing plasma type thing along a large jet stream in night sky,35.48,-86.09,night
10/12/2008 21:00,2008-10-12,21:00,stafford (uk/england),,gb,light,60,1 minute,Another UFO&#44 definately watching me and sending signals.,52.83,-2.0,night
10/12/2008 23:00,2008-10-12,23:00,gainesville,va,us,light,300,5 minutes,Bright Blue Fluorescent Light Seen in Virginia Outside Washington DC,38.8,-77.61,night
10/12/2008 23:00,2008-10-12,23:00,las vegas,nv,us,changing,900,15 mins,About 23:00 I opened the drapes and I looked towards the sky.,36.17,-115.14,night
10/12/2008 23:00,2008-10-12,23:00,wayne,mi,us,circle,45,45 seconds,2 orange colored objects flying and stopping over WAYNE&#44 MICHIGAN,42.28,-83.39,night
10/12/2009 07:00,2009-10-12,07:00,dover,nh,us,unknown,5,5 sec,I saw a shiny object that shot across the northeast sky at a high rate of speed.,43.2,-70.87,daylight
10/12/2009 11:00,2009-10-12,11:00,mcdonough,ga,us,formation,900,15 minutes,We were outside filming a highschool project when someone saw a flash over head. we looked up and saw 3 or even 4 crafts with no distin,33.45,-84.15,daylight
10/12/2009 20:00,2009-10-12,20:00,yakima,wa,us,light,300,5 min,3 very bright lights stationary in the sky&#44 but separated  by approximately 10 degrees,46.6,-120.5,night
10/12/2009 20:30,2009-10-12,20:30,san juan,tx,us,unknown,900,15 minutes,8:30ct &#160; Oct. 12&#44 2009  Myself&#44 my husband and my daughter saw a large bright object that looked like a star at first.... It was moving,26.19,-98.16,night
10/12/2009 22:00,2009-10-12,22:00,houston/tomball,tx,,light,60,about a minute,A white light like a star traveling very fast chafing directions then dissapeared.,30.1,-95.62,night
10/12/2010 00:00,2010-10-12,00:00,port au port west (canada),nf,,light,900,10 -15 min,moving  bright white light fades out / moves far away then returns shortly after,48.54,-58.78,night
10/12/2010 00:56,2010-10-12,00:56,cross roads,tx,us,triangle,180,3 mins,BLACK TRIANGLE SEEN OVER NORTH TEXAS ON 10.12.10,31.07,-96.14,night
10/12/2010 06:00,2010-10-12,06:00,tomball,tx,us,cigar,20,20 seconds,A ufo sits for ten seconds&#44 and disappears completely,30.1,-95.62,daylight
10/12/2010 06:07,2010-10-12,06:07,sioux falls,sd,us,light,600,10 minutes approx,Hovering flashing lights moving up,43.55,-96.7,daylight
10/12/2010 10:00,2010-10-12,10:00,milpitas,ca,us,other,300,5 minutes,Similar white dots seen in NYC seen in Milpitas CA,37.43,-121.91,daylight
10/12/2010 10:00,2010-10-12,10:00,milpitas,ca,us,other,300,5 minutes,Sorry about this&#44 but I just filed a report about the white dots over Milpitas and I believe I got the day wrong.  I reported Wednesday,37.43,-121.91,daylight
10/12/2010 12:30,2010-10-12,12:30,waco,tx,us,oval,300,5min.,Oval shaped aluminum colored object spotted in broad day light and dissapeared,31.55,-97.15,daylight
10/12/2010 16:00,2010-10-12,16:00,hillsdale,mi,us,circle,120,1-2 minutes,Hovering/moving white or metallic ball in the sky,41.92,-84.63,daylight
10/12/2010 19:00,2010-10-12,19:00,arlington,va,us,sphere,45,45 seconds,Moving object resembeling a star headed Southeast,38.89,-77.08,night
10/12/2010 19:10,2010-10-12,19:10,dallas,tx,us,cigar,300,5 minutes,Bright white light cigar shaped object seen flying slowly to the north in slight decent.,32.78,-96.8,night
10/12/2010 19:13,2010-10-12,19:13,daphne,al,us,chevron,45,45 sec,Chevron shape lights moving slowly&#44 Daphne AL,30.6,-87.9,night
10/12/2010 20:15,2010-10-12,20:15,bridgeton,mo,us,rectangle,120,2 minutes,Dark rectangular object ascended into the sky near St. Louis International airport,38.77,-90.41,night
10/12/2010 20:30,2010-10-12,20:30,boston,ma,us,disk,300,5+ mins.,Bright UFO above Boston&#44 Ma,42.36,-71.06,night
10/12/2010 21:00,2010-10-12,21:00,lufkin,tx,us,chevron,30,30 seconds,My wife and I observed chevron shaped lights moving across the sky,31.34,-94.73,night
10/12/2010 22:15,2010-10-12,22:15,pinellas park,fl,us,circle,1800,about 30 minutes,A BRIGHT blue&#44 red&#44 green&#44 white globe that would go out and randomly change colors. ((NUFORC Note:  Twinkling star?  PD)),27.84,-82.7,night
10/12/2010 22:30,2010-10-12,22:30,fort mohave,az,,changing,3600,1 + hours,Circular craft seen over Fort Mohave&#44 Arizona with fast moving perimeter lights.,35.02,-114.59,night
10/12/2010 22:30,2010-10-12,22:30,waterloo,ia,us,light,180,2-3 minutes,Orange orb came close.,42.49,-92.34,night
10/12/2010 22:45,2010-10-12,22:45,knoxville,tn,us,light,240,4 minutes,A string of about  12 amber lights sighted in clear late evening sky moving NNE from the Smoky Mnts.,35.96,-83.92,night
10/12/2011 17:11,2011-10-12,17:11,waco,tx,us,changing,900,15 min,No noise precision flying unreal altitude gains somewhat creepy and appeared as many and left as one,31.55,-97.15,daylight
10/12/2011 19:40,2011-10-12,19:40,whitesburg,tn,us,circle,30,30 seconds,Blue (same as sky) colored circle with red&#44 white and blue lights on it seen around dusk.,36.27,-83.14,night
10/12/2011 20:00,2011-10-12,20:00,ocean isle beach,nc,us,light,1200,20 minutes,I am a 55 year old business owner from Raleigh&#44 NC and have been an FAA  licensed  pilot  for 37 years. I have an interest in astronomy,33.89,-78.43,night
10/12/2011 20:00,2011-10-12,20:00,st. george,ut,us,disk,7,about 7 seconds,I saw a hovering metallic grey saucer shaped disk hovering over the South Gate Golf course,37.1,-113.58,night
10/12/2011 20:07,2011-10-12,20:07,charleston,sc,us,unknown,30,1 and half min,Blue object&#44 translucent&#44 no sound,32.78,-79.93,night
10/12/2011 21:00,2011-10-12,21:00,san antonio,tx,us,triangle,900,15 minutes,2 spacecraft and huge blue light in the sky,29.42,-98.49,night
10/12/2011 21:00,2011-10-12,21:00,zortman,mt,us,light,1800,30 mins,Small bright yellow white light forming into three. making a loud roaring noise.,47.92,-108.53,night
10/12/2012 00:00,2012-10-12,00:00,titusville,fl,us,fireball,30,30 second intervals,WE SAW 3 SEPARATE SIGHTINGS WITHIN 15 MINS TIME EACH TIME 3 ORANGE FLAME BALLS FLEW IN UNISON THROUGH THE NEIGHBORS TREES AT A FAST PAC,28.61,-80.81,night
10/12/2012 04:10,2012-10-12,04:10,chicago,il,us,unknown,7200,1-2 hours,UFO&#8217;s spotted in Chicago in the early morning on 10/12/12.,41.85,-87.65,night
10/12/2012 06:30,2012-10-12,06:30,pittsburgh,pa,us,rectangle,3,3 seconds,Craft zoomed past my windshield.,40.44,-80.0,daylight
10/12/2012 08:25,2012-10-12,08:25,bessemer,pa,us,circle,300,5 minutes,Bright orange circles,40.97,-80.49,daylight
10/12/2012 14:30,2012-10-12,14:30,big rock,tn,us,sphere,1200,20 minutes,Large white/silver spherical object with smaller black object in close proximity over Fort Campbell&#44 KY.,36.58,-87.76,daylight
10/12/2012 15:00,2012-10-12,15:00,clarksville,tn,us,circle,120,2 minutes,Very huge mass with black figured markings no outer rim,36.53,-87.36,daylight
10/12/2012 17:00,2012-10-12,17:00,ashland,or,us,cylinder,40,40 seconds,Airliner and UFOs.,42.19,-122.71,daylight
10/12/2012 17:45,2012-10-12,17:45,waynesburg (north of),pa,us,light,60,1 minute,Bright light surrounded by jets.,39.9,-80.18,daylight
10/12/2012 18:00,2012-10-12,18:00,salem,or,us,oval,600,10 minutes,An oval shaped craft emited an intense silver light. The bottom of it had a red/blue streak. Then it very fast left blinking red.,44.94,-123.03,night
10/12/2012 18:55,2012-10-12,18:55,phoenix,az,us,other,300,5 minutes,Huge fireball in Phoenix turns into two orbs that float and tumble to the ground,33.45,-112.07,night
10/12/2012 19:00,2012-10-12,19:00,buckeye,az,us,light,3600,~1 hour,I saw a strange orange orb in the southern sky.,33.37,-112.58,night
10/12/2012 19:00,2012-10-12,19:00,glendale,az,us,,45,45 seconds,2 objects with flame trails  making manuevers spirals lights,33.54,-112.19,night
10/12/2012 19:00,2012-10-12,19:00,lake worth,fl,us,chevron,60,60 seconds,Chevron Shape Bright Object in the Northern Sky,26.62,-80.06,night
10/12/2012 19:00,2012-10-12,19:00,lake worth,fl,us,cylinder,60,60 seconds,Self illuminating rod-chevron shape near West Palm Beach,26.62,-80.06,night
10/12/2012 19:00,2012-10-12,19:00,shapleigh,me,us,changing,300,5 minutes,UFO Chasing commercial flight in southern maine&#33&#33,43.54,-70.85,night
10/12/2012 19:10,2012-10-12,19:10,hadlyme,ct,us,light,300,5 minutes,Bright ascending light&#44 vanished in a flash,41.42,-72.41,night
10/12/2012 19:30,2012-10-12,19:30,tucson,az,us,chevron,6,6 seconds,Stange Craft seen in  the night sky over Tucson Az.,32.22,-110.93,night
10/12/2012 20:00,2012-10-12,20:00,cumberland,md,us,light,10,6 to 10 seconds,Stunned to what I seen. Bright. Semi stationary light. Very bright. Seen no form. Just the light.,39.65,-78.76,night
10/12/2012 20:00,2012-10-12,20:00,deptford,nj,,sphere,600,10 minutes,My husband and I saw a slow-moving&#44 low-flying&#44 orange globe going over our development around 8:00 at night.,39.82,-75.12,night
10/12/2012 20:00,2012-10-12,20:00,waukesha,wi,us,circle,900,15 minutes,25 orange lights in the sky,43.01,-88.23,night
10/12/2012 20:28,2012-10-12,20:28,bellevue,ky,us,,120,2 minutes,Observed a round ball of white light about 1000 ft next to a plane going same speed then disappear.,39.11,-84.48,night
10/12/2012 20:30,2012-10-12,20:30,oklahoma city,ok,us,sphere,300,5 minutes,Multiple silent red orbs under power over Oklahoma City&#44 approx. 5 min. duration.,35.47,-97.52,night
10/12/2012 20:30,2012-10-12,20:30,wellington,fl,us,fireball,600,10 minutes,2 circular balls of red light floating over neighborhood in wellington&#44 fl,26.66,-80.24,night
10/12/2012 20:45,2012-10-12,20:45,grayling,mi,us,light,600,10 minutes,Intense bright white light&#44 turns bright orange and vanishes near Grayling Michigan,44.66,-84.71,night
10/12/2012 21:05,2012-10-12,21:05,anchorage,ak,us,fireball,10,10 seconds,Short rocket-like fireball near air force base.,61.22,-149.9,night
10/12/2012 21:25,2012-10-12,21:25,oshawa (canada),on,ca,triangle,3,3 seconds,Large silent metallic craft&#44very fast and no lights,43.9,-78.87,night
10/12/2012 21:45,2012-10-12,21:45,cabin creek,wv,us,unknown,40,40 seconds,Three big white lights with a set of twinkling lights. Craft was hovering then moved at slow pace. Then it disappeared at of then air.,38.2,-81.48,night
10/12/2012 22:00,2012-10-12,22:00,marlton,nj,us,circle,1800,30 minutes plus,20 cirlces of orange lite in the Kings grant area marlton New Jersey,39.89,-74.92,night
10/12/2012 22:00,2012-10-12,22:00,ridley park,pa,us,light,15,15 seconds,Blue light object falls from sky 10/12/12 PA,39.88,-75.32,night
10/12/2012 23:00,2012-10-12,23:00,varanasi (india),,,changing,8,8 seconds,I Witnessed a holographic-like display of about 50 points of light rapidly transforming into various 3-dimensional rectangular shapes,25.32,82.97,night
10/12/2012 23:15,2012-10-12,23:15,wolcott,ct,us,circle,300,5 minutes,5 amber orbs floating at a high rate of speed,41.6,-72.99,night
10/12/2013 03:08,2013-10-12,03:08,austin,tx,us,unknown,17,recorded 17 seconds,Gold hazy &quot;being&quot; hovering (like standing on edge of craft) while over apt building in NW Austin - amber lights on edges.,30.27,-97.74,night
10/12/2013 04:30,2013-10-12,04:30,cambridge,ny,us,light,7200,2 hours,Flickering light moved in almost a hummingbird type fashion,43.03,-73.38,night
10/12/2013 07:17,2013-10-12,07:17,strongsville,oh,us,triangle,300,5 minutes,Three bright lights in triangle formation over Strongsville/Brunswick area. Moved together almost as if one craft.,41.31,-81.84,daylight
10/12/2013 07:45,2013-10-12,07:45,festus,mo,us,fireball,60,1 minute,2 large orange lights hovering near each other. Moving up and down&#44 side to side. Zoomed &amp; disappeared&#44 seemingly realizing us noticing,38.22,-90.4,daylight
10/12/2013 13:00,2013-10-12,13:00,owego,ny,us,disk,120,2 minutes,2 Flying discs over Owego&#44 New York&#44 USA.,42.1,-76.26,daylight
10/12/2013 14:35,2013-10-12,14:35,kodiak,ak,us,other,300,5 minutes,Huge and change of vector into sky.,57.79,-152.41,daylight
10/12/2013 15:00,2013-10-12,15:00,st. louis,mo,us,formation,900,15+ minutes,Cluster of silver orbs fading in and out of view.,38.63,-90.2,daylight
10/12/2013 18:30,2013-10-12,18:30,clarkston,mi,us,triangle,1800,30 minutes,Triangular object with 2 small round objects in clouds in daylight&#441 of the objects took off at increadable speed.,42.74,-83.42,night
10/12/2013 19:45,2013-10-12,19:45,columbus,oh,us,changing,180,2.5-3 minutes,Shape shifting Light Orbs.,39.96,-83.0,night
10/12/2013 20:00,2013-10-12,20:00,finleyville,pa,us,other,120,2 minutes,Four orange globes,40.25,-80.0,night
10/12/2013 20:00,2013-10-12,20:00,lima,oh,us,formation,600,10 minutes,Husband and I witnessed 4 translucent lights moving clockwise then coming together in center and then spreading back out. I have seen t,40.74,-84.11,night
10/12/2013 20:00,2013-10-12,20:00,north judson,in,us,light,30,30 seconds,3 to 4 bright glowing oarnge balls in a straight line&#44 then made fast movements in a straight line,41.22,-86.78,night
10/12/2013 20:00,2013-10-12,20:00,suffolk,va,us,triangle,900,15 minutes,9 sets of 3 triangular aircraft.,36.73,-76.58,night
10/12/2013 20:20,2013-10-12,20:20,morganton,nc,us,light,300,5 minutes,Red/orange lights.,35.75,-81.68,night
10/12/2013 20:28,2013-10-12,20:28,keswick (canada),on,ca,sphere,120,2 minutes,Fuzzy orange sphere in night sky moving quickly south to north no nav lights visible,44.25,-79.47,night
10/12/2013 20:40,2013-10-12,20:40,hamilton,oh,us,formation,1200,20 minutes,Bright light splits into 4 and forms shapes&#44 disappears one at a time&#44 above Hamilton Ohio,39.4,-84.56,night
10/12/2013 20:55,2013-10-12,20:55,austin,tx,us,triangle,60,1 minute,UFO lights over Austin&#44 Texas ACL Fest During the Cure Concert.,30.27,-97.74,night
10/12/2013 21:00,2013-10-12,21:00,franklin,oh,us,light,600,10 minutes,Bright white lights one then three then four appeared then all diappeared then reappeared.,39.56,-84.3,night
10/12/2013 21:00,2013-10-12,21:00,hamilton,oh,us,fireball,120,1-2 minutes,Large orange fireball splits into four fireballs.,39.4,-84.56,night
10/12/2013 21:00,2013-10-12,21:00,koh samui (thailand),,,circle,45,45 seconds,Bright orange sphere in nighttime sky in Thailand.,9.51,100.01,night
10/12/2013 21:00,2013-10-12,21:00,springboro,oh,us,unknown,60,<1 minute,Glowing orbs flickering and changing configuration.,39.55,-84.23,night
10/12/2013 21:00,2013-10-12,21:00,west chester,oh,us,light,60,~1 minute,One yellow light that split into four the reunited over Butler County Ohio.,39.09,-81.92,night
10/12/2013 21:15,2013-10-12,21:15,miamisburg,oh,us,fireball,600,10 minutes,Started as a fireball that separated into three hovering objects,39.64,-84.29,night
10/12/2013 21:15,2013-10-12,21:15,peoria,il,us,formation,180,3 minutes,Several stationary orange lights in sky west of Peoria&#44 in a descending arc which dissappeared in twos after a short period of time.,40.69,-89.59,night
10/12/2013 21:45,2013-10-12,21:45,springboro,oh,us,unknown,30,30 seconds,High altitude orb of ligh breaks into four&#44 which move around laterally&#44 join back together and disappear.,39.55,-84.23,night
10/12/2013 22:00,2013-10-12,22:00,aspen (~2 hrs. w of; driving),co,us,formation,30,15-30 seconds,3 orbs in sky remote Colorado oct 12 2013  moving in up and down to side to side plus sign formations .,39.19,-106.82,night
10/12/2013 22:00,2013-10-12,22:00,grand junction (east of; on i-70),co,us,light,15,15 seconds,Oct 12&#44 2013&#44 I saw 3  orbs in sky  east of grand junction on I/70  moving in fasted up and down side to side  formations. .,39.06,-108.55,night
10/12/2013 22:00,2013-10-12,22:00,sundridge (canada),on,ca,sphere,15,several hours,Multi colored Lights that moved in all random directons.  ((NUFORC Note:  We suspect &quot;twinkling&quot; stars.  PD)),45.77,-79.4,night
10/12/2013 22:05,2013-10-12,22:05,chandlerville,oh,,diamond,2400,>20-40 minutes,Northeastern view of red and green shaped diamond changing flight pattern for the past 25 mins,39.9,-81.83,night
10/12/2013 22:05,2013-10-12,22:05,hilliard,oh,us,diamond,180,3 minutes,Diamond\Top UFO with all red panels.,40.03,-83.16,night
10/12/2013 22:26,2013-10-12,22:26,hiawassee,ga,us,circle,900,15 minutes,We just witnessed an amazing event.  About ten different hovering light facing 20&#39 north east of Hiawassee.  They were orange like and,34.95,-83.76,night
10/12/2013 22:30,2013-10-12,22:30,lombard,il,us,other,120,2 minutes,Two thin&#44 pinkish glowing rings drifting through the air.,41.88,-88.01,night
10/12/2013 22:30,2013-10-12,22:30,west newbury,ma,,sphere,600,10 minutes,Witness one saw sphere shape with multiple lights&#44 stationary for a while.  green to red.    Witness 2 saw zig zagging pattern&#44 like a,42.77,-70.85,night
10/12/2013 23:00,2013-10-12,23:00,anderson,sc,us,circle,20,20 seconds,3 orange balls of light&#44 that jet off one at a time in different directions&#33,34.5,-82.65,night
10/12/2013 23:28,2013-10-12,23:28,orangevale,ca,us,fireball,600,10 minutes,8 Orange Fireballs In sky,38.68,-121.22,night
10/12/2013 24:00,2013-10-12,00:00,cincinnati,oh,us,fireball,300,3-5 minutes,A bright orange light split into four&#44 did a strange but precise set of movements&#44 then joined back together and faded.,39.16,-84.46,night
10/12/2013 24:00,2013-10-12,00:00,orangevale (sacramento),ca,us,sphere,60,1 minute,swarm of 8 orange orbs stop and dispers in many directions...,38.68,-121.22,night
10/13/2007 01:30,2007-10-13,01:30,vancleave,ms,us,unknown,10800,3 hours,Brilliant object that changed colors&#44 Green&#44 Red&#44 Blue and Yellow. 10/13/2007,30.54,-88.69,night
10/13/2007 01:59,2007-10-13,01:59,iroquois falls (canada),on,ca,triangle,120,approxmately 2 minutes,triangular shaped craft with lights at each point&#44 rotating over remote northern Canadian town. report 30 minutes after witnessing.,48.77,-80.67,night
10/13/2007 02:25,2007-10-13,02:25,kagoshima (japan),,,formation,15,10-15 seconds,Object was a birdlike formation suddenly apearing in the sky then gradually passing toward north-east and suddenly vanishing. Event las,31.6,130.56,night
10/13/2007 04:50,2007-10-13,04:50,noida (india),,,fireball,120,2 minutes,FOOTBALL SHAPED AND SIZED BRIGHT OBJECT IN THE NIGHT SKY,28.54,77.39,night
10/13/2007 07:45,2007-10-13,07:45,katy,tx,us,triangle,5,5 seconds,Black triangle flying low and slow,29.79,-95.82,daylight
10/13/2007 08:35,2007-10-13,08:35,henderson,nv,us,changing,90,1.5,UFOs over henderson&#44 nv,36.04,-114.98,daylight
10/13/2007 11:15,2007-10-13,11:15,fairfax,va,us,sphere,600,ten minutes,Spherical object traveling eastward then northward from Dulles Airport&#44 paralleling Route 50 in Fairfax VA.,38.85,-77.31,daylight
10/13/2007 15:30,2007-10-13,15:30,ashland,or,us,light,600,1/2 hour,very bright greenish blue light the size of a large star moving slowly  NW to SE and back again gaining altitude for 1/2 hour at 3:30,42.19,-122.71,daylight
10/13/2007 17:30,2007-10-13,17:30,los angeles,ca,us,cigar,15,13-15 seconds,cigar shaped object hovers next to Los Angeles Fwy&#44 vanishes in plain daylight,34.05,-118.24,daylight
10/13/2007 18:30,2007-10-13,18:30,marysville,wa,us,cigar,900,15 minutes,Still really cannot pin point exactly what the objects were. It gave me an real weird feeling the way the moved.,48.05,-122.18,night
10/13/2007 20:28,2007-10-13,20:28,mooresville,nc,us,light,300,5 minutes,Three large&#44 round&#44 bright orange lights coming together in the form of a rotating triangle,35.58,-80.81,night
10/13/2007 22:00,2007-10-13,22:00,kennewick,wa,us,cylinder,300,hours,cylinder objects&#44 glowing moon size lights&#44 hundreds of tiny lights bouncing around house,46.21,-119.14,night
10/13/2007 22:30,2007-10-13,22:30,kirkcaldy (uk/scotland),,gb,circle,600,10 mins +,semi-transparent big wheel like object. spinning in a stationery possition for about 10 miutes,56.12,-3.17,night
10/13/2007 22:40,2007-10-13,22:40,irvine/newport beach,ca,,disk,60,< 1 minute,Disk-Like object  with lights west of John Wayne Airport,33.61,-117.89,night
10/13/2007 23:00,2007-10-13,23:00,seattle,wa,us,unknown,7200,over 2 hours,Distant dancing light in the sky southeast of Seattle for prolonged time,47.61,-122.33,night
10/13/2007 24:00,2007-10-13,00:00,hudson,wi,us,sphere,180,3 minutes,6 Balls of Light Swooping Behind Chem-Clouds 9:30 p.m. CST,44.97,-92.76,night
10/13/2008 05:30,2008-10-13,05:30,santa rosa,ca,us,light,10,10 seconds,I was standing outside early in the morning looking at the stars and i noticed what appeared to me as one of the stars started to mve i,38.44,-122.71,night
10/13/2008 06:00,2008-10-13,06:00,newburyport,ma,us,light,300,5 min,WS OUT FOR RUN AT 6 SAW SMALL BRIGHT LIGHTS HIGH UP OVER CONSTRUCTION SITE THOUGHT THEY MUST HAVE BEEN ON TOP OF CRANE. NO CRANE THERE,42.81,-70.88,daylight
10/13/2008 09:20,2008-10-13,09:20,clovis,ca,us,other,3000,50 minutes,Thousands of transparent&#44 faintly illuminated objects flying over Clovis&#44 CA 10/13/08 9:20 pm,36.83,-119.7,daylight
10/13/2008 10:15,2008-10-13,10:15,san francisco,ca,us,circle,900,15m,What caught my attention was how close they were together.  I thought it was vapor trials from two planes that was going to land at sfo,37.78,-122.42,daylight
10/13/2008 14:00,2008-10-13,14:00,yakima,wa,us,unknown,120,several minutes,strange looking metalic objects  above yakima wa&#44 spinning&#44 then split up into different directions. big lower foating object vanished,46.6,-120.5,daylight
10/13/2008 21:30,2008-10-13,21:30,butte,mt,us,,3600,1 hour,40-50 lights flying over Butte Montana in a V formation,46.0,-112.53,night
10/13/2009 02:45,2009-10-13,02:45,belleville (canada),on,ca,disk,5,5 seconds,I was driving back to Cornwall ontario from burlington for thanksgiving. It was approximately 0245 -0300 hours in the am. It was at the,44.17,-77.38,night
10/13/2009 06:30,2009-10-13,06:30,jackson,nj,us,light,10,10 seconds,soccer ball sized light moving throughout the trees and then headed at us before turning and disappearing,39.78,-74.86,daylight
10/13/2009 07:03,2009-10-13,07:03,bend,or,us,light,180,3 min,viewed for 3 minutes a pulsating circular object which  moved very slowly  above some trees,44.06,-121.31,daylight
10/13/2009 14:00,2009-10-13,14:00,whakatane (new zealand),,,triangle,1800,15-30min,Hi I decided to get out of Auckland City for a while&#44so me and my girlfriend went for a drive&#44so we decided to go to Whatatane&#44its a sm,-37.95,176.99,daylight
10/13/2009 20:00,2009-10-13,20:00,little river,sc,us,light,9000,20:00-22:30,our siting relates to many of the other summarys,33.87,-78.61,night
10/13/2009 20:30,2009-10-13,20:30,stockton,ca,us,light,10,10 secs,UFO DANCING IN THE SKY,37.96,-121.29,night
10/13/2009 22:00,2009-10-13,22:00,minersville,pa,us,sphere,300,5 minutes,2 large&#44 bright Orange/Amber lights in the sky,40.69,-76.26,night
10/13/2009 23:10,2009-10-13,23:10,crookston,mn,us,triangle,180,3 min,Saw it over high-tension lines for a few min then flew off to the west.,47.77,-96.61,night
10/13/2010 01:00,2010-10-13,01:00,pueblo,co,us,flash,5,5 seconds,Red flash of light in the sky,38.25,-104.61,night
10/13/2010 03:00,2010-10-13,03:00,webster,tx,us,cross,120,2 minutes,Blinking white light and red.,29.54,-95.12,night
10/13/2010 04:45,2010-10-13,04:45,rochester,ny,us,light,3600,60 minutes,Orange light seen hovering and moving over Rochester,43.15,-77.62,night
10/13/2010 14:30,2010-10-13,14:30,las vegas,nv,us,circle,600,10 minutes,Sighting of 3 UFO&#39s in the Las Vegas region in triangle formation that moved to a straight line.,36.17,-115.14,daylight
10/13/2010 16:00,2010-10-13,16:00,naperville,il,us,cylinder,900,l5 minutes,Vertical cigar shaped object in western horizon sited&#44 then disappears...,41.79,-88.15,daylight
10/13/2010 17:00,2010-10-13,17:00,richmond,ca,us,sphere,600,7-10 minutes,Bright yellow and white glowing sphere motionless for 7-10 minutes&#44 changes shape&#44 disapears,37.94,-122.35,daylight
10/13/2010 17:30,2010-10-13,17:30,flora,il,us,cross,90,~1.5min,Strange gray object spotted in my small town,38.67,-88.49,daylight
10/13/2010 18:15,2010-10-13,18:15,grandview,mo,us,chevron,10,5-10 seconds,V-shaped UFO with 5 glowing lights underneath was seen flying low and slow&#44 without much sound.,38.89,-94.53,night
10/13/2010 18:30,2010-10-13,18:30,grandview,mo,us,chevron,10,10 seconds,Black V-shaped UFO with 5 orange lights.,38.89,-94.53,night
10/13/2010 20:00,2010-10-13,20:00,cincinnati,oh,us,unknown,300,5 minutes,On 10/13/10&#44 while driving&#44 I saw an unusual nonblinking&#44 stationary light over Cincinnati.,39.16,-84.46,night
10/13/2010 20:00,2010-10-13,20:00,lincoln,ca,us,flash,3600,1 hour,Flashing light circles over Lincoln CA for at least an hour.,38.89,-121.29,night
10/13/2010 20:30,2010-10-13,20:30,brick,nj,,circle,120,2 minutes,A fire disk was seen moving slowly as the light dimmed and object disappeared. 500 Lights On Object0: Yes,40.06,-74.14,night
10/13/2010 20:30,2010-10-13,20:30,gilbert,az,us,circle,60,1 minute,An alternating red and blue lighted object&#44 bobbling rapidly and erratically in the sky and then descending  in a controlled fashion.,33.35,-111.79,night
10/13/2010 20:30,2010-10-13,20:30,martinez,ca,us,other,8,~8 seconds,Faintly glowing wedge-shaped craft flies swiftly and silently over San Francisco East Bay town.,38.02,-122.13,night
10/13/2010 20:30,2010-10-13,20:30,sunol,ca,us,other,12,12 seconds,Star that stops&#44 slows&#44 stops&#44slows&#44then drops out of sight.,37.59,-121.89,night
10/13/2010 20:40,2010-10-13,20:40,grandview,mo,us,chevron,60,1 minute,V-Shaped aircraft moving slow and low. 5 glowing lights underneath. No cockpit&#44 or fusilage,38.89,-94.53,night
10/13/2010 20:45,2010-10-13,20:45,charleston,sc,us,triangle,300,5 minutes,I saw three fire orange oval shaped lights flying in triangle shape formation.,32.78,-79.93,night
10/13/2010 21:00,2010-10-13,21:00,charlotte,nc,us,light,600,5-10 minutes,5 pulsating lights above Charlotte&#44 NC,35.23,-80.84,night
10/13/2010 21:00,2010-10-13,21:00,san francisco,ca,us,light,240,3-4 minutes,Multiple lights over Ocean Beach,37.78,-122.42,night
10/13/2010 21:00,2010-10-13,21:00,san francisco,ca,us,sphere,1200,20 minutes,coming down 24th st looking northwest across the goldengate.orbs in slightly curved line on the westside of the goldengate at approxima,37.78,-122.42,night
10/13/2010 22:00,2010-10-13,22:00,allen,tx,us,unknown,10,10 secs,Shadow object...Black then (glow) speeding across night sky.,33.1,-96.67,night
10/13/2010 22:30,2010-10-13,22:30,rio linda,ca,us,cylinder,2,:02,I saw the cylinder shaped looked like a spaceship hovring above the east side of the Air Force base. Saw it for about 30 seconds and ra,38.69,-121.45,night
10/13/2010 22:45,2010-10-13,22:45,etna,ca,us,flash,1500,25 minutes,UFO Rotating Red Green Yellow Lights,41.46,-122.89,night
10/13/2010 22:45,2010-10-13,22:45,las vegas,nv,us,changing,15,15 seconds,Shapeshifting object seen over Las Vegas drive-in movie theater.  ((NUFORC Note:  Possibly migratory birds??  PD)),36.17,-115.14,night
10/13/2011 01:36,2011-10-13,01:36,norman,ok,us,oval,120,2 min,Yellowish center middle orange with a outter red glow sphere,35.22,-97.44,night
10/13/2011 03:30,2011-10-13,03:30,newark,nj,us,light,10,10 seconds,Sighting of colorful lights in the morning sky,40.74,-74.17,night
10/13/2011 15:00,2011-10-13,15:00,wilmington,oh,us,unknown,4,3-4 secs,Long black flying shape for 3 to 4 seconds&#33,39.45,-83.83,daylight
10/13/2011 18:45,2011-10-13,18:45,mysore (india),,,light,10,10 sec,It was a star like thing which was not twinkling . . . But moving very swiftly . . &#33,12.3,76.64,night
10/13/2011 19:20,2011-10-13,19:20,merriam,ks,us,triangle,15,15 seconds,Triangular&#44 almost hovering but very slow movement&#44 5 bright lights&#44 no sound,39.02,-94.69,night
10/13/2011 19:47,2011-10-13,19:47,oldham (uk/england),,gb,oval,60,1 minute,Oval shape unlike anything I have seen before emitting bright lights,53.55,-2.12,night
10/13/2011 19:56,2011-10-13,19:56,boiling springs,sc,us,triangle,300,5 min,Triangle formed lights in sky.,35.05,-81.98,night
10/13/2011 20:00,2011-10-13,20:00,boiling springs,sc,us,formation,300,5 minutes,Two vertical lines of 3 lights apiece&#44 hovering.,35.05,-81.98,night
10/13/2011 20:21,2011-10-13,20:21,north myrtle beach,sc,us,unknown,60,1 min,Three yellow orange spheres of light in triangle formation see over the ocean in the night sky at North Myrtle Beach.,33.82,-78.68,night
10/13/2011 20:30,2011-10-13,20:30,avon,nc,us,fireball,900,15 min.,31 orange balls of light coming out of ocean&#44silent,35.35,-75.51,night
10/13/2011 20:38,2011-10-13,20:38,gurley,al,us,diamond,480,6 to 8 mins,Super bright star shaped light&#44 desending straight down in slow desent as seen from Gurley&#44 Al,34.7,-86.38,night
10/13/2011 21:00,2011-10-13,21:00,surfside beach,sc,us,light,1800,30 minutes,Amber lights over South Carolina coast,33.61,-78.97,night
10/13/2011 22:00,2011-10-13,22:00,atlantic coast (at sea on cruise ship) (canada),nv,,other,10,less than ten seconds,Pill Shaped Dark Object Illuminated By The Ships Own Light At Sea,38.8,-116.42,night
10/13/2011 22:26,2011-10-13,22:26,myrtle beach,sc,us,circle,15,15 seconds,4 orange circle lights appear and disappear,33.69,-78.89,night
10/13/2011 23:38,2011-10-13,23:38,homestead,fl,us,sphere,1800,30 minutes,Bright white sphere coming out of unusual single storm cloud.,25.47,-80.48,night
10/13/2012 01:00,2012-10-13,01:00,bel air,md,us,light,8,5-8 seconds,Bright white orb traveling fast over Bel Air,39.54,-76.35,night
10/13/2012 01:38,2012-10-13,01:38,cary,nc,us,fireball,4,@4 seconds,Prior to this event&#44 there was about 25-60 seconds of a very low vibrating hum that was almost piercing because it hit so many decibels,35.79,-78.78,night
10/13/2012 02:00,2012-10-13,02:00,benidorm (spain),,,changing,660,11 minutes,Best UFO Sighting Footage of 2012.,38.54,-0.12,night
10/13/2012 02:00,2012-10-13,02:00,salt lake city,ut,us,other,120,2 minutes,It was a blue light in the sky&#44 i was driving home after i drop a friend off in rose park&#44 than i realize that there was a blue light,40.76,-111.89,night
10/13/2012 05:30,2012-10-13,05:30,ligonier,pa,us,other,1200,15-20 minutes,Puslating Lights&#44 Yellow&#44  Red&#44 Yellow-Object was completely silent,40.24,-79.24,night
10/13/2012 06:30,2012-10-13,06:30,cedar bluff,al,us,circle,240,3-4 minutes,Bright star like ufo.,34.22,-85.61,daylight
10/13/2012 10:00,2012-10-13,10:00,columbia,md,us,triangle,600,10 minute,Driving down Broken Land Parkway heading south&#44 my fianc&eacute;e&#44 his cousin who was visiting from out of town and I noticed a formation of a,39.24,-76.84,daylight
10/13/2012 14:38,2012-10-13,14:38,denver,co,us,other,900,15 minutes,Unidentified box looking object flying across Denver Metropolitan area under intelligent control.,39.74,-104.98,daylight
10/13/2012 15:00,2012-10-13,15:00,stockton springs,me,us,sphere,3,2-3 seconds,Bright glowing sphere moving across sky at extreme speed.,44.49,-68.86,daylight
10/13/2012 19:00,2012-10-13,19:00,pueblo,co,us,oval,5,5 seconds,Greenish bluish object sphere that flashed in the dusk sky and then descended to the Arkansas River Bottom,38.25,-104.61,night
10/13/2012 19:00,2012-10-13,19:00,taos,nm,us,rectangle,10,10 seconds,Parallelogram shaped bright&#44 white light low on the horizon&#44 flashed twice.,36.41,-105.57,night
10/13/2012 19:20,2012-10-13,19:20,pekin,il,us,triangle,120,2 minutes,EIGHT ORANGE AND RED LIGHTS OVER PEKIN&#44 IL.,40.57,-89.64,night
10/13/2012 20:00,2012-10-13,20:00,calgary (canada),ab,ca,light,120,120 seconds,Bright light seen over calgary se,51.08,-114.08,night
10/13/2012 20:22,2012-10-13,20:22,milford,ct,us,oval,900,15 minutes,Cluster of red/orange objects ascending into sky,41.22,-73.06,night
10/13/2012 20:26,2012-10-13,20:26,holyoke,ma,us,oval,1500,25 minutes,There was a faint dull silver green luminous oval object flying in a clockwise rotation&#44spanning over the river and neighboring houses.,42.2,-72.62,night
10/13/2012 20:30,2012-10-13,20:30,glasgow (uk/scotland),,gb,circle,300,5 minutes,Strange Orange Orb over Glasgow&#44 Scotland&#44 UK,55.83,-4.25,night
10/13/2012 20:30,2012-10-13,20:30,lemont,il,us,oval,2400,40 minutes,MULTIPAL YELLOW-ORANGE LIGHTS RISING IN NORTHERN SKY THEN DRIFTING EAST,41.67,-88.0,night
10/13/2012 20:30,2012-10-13,20:30,milford,ct,us,circle,540,9 minutes,9 Orange Circles (Fireballs) seen traveling one group of 5 then 4 moving one at a time in same path,41.22,-73.06,night
10/13/2012 20:30,2012-10-13,20:30,milford,ct,us,light,900,15 minutes,Approx 30 lights in formation over Milford ct multiple parachutters at approx 8:30p.,41.22,-73.06,night
10/13/2012 20:40,2012-10-13,20:40,evergreen park,il,us,oval,300,5 minutes,Several bright copper-colored lights moving across the sky.,41.72,-87.7,night
10/13/2012 21:00,2012-10-13,21:00,cromwell,ct,us,cylinder,360,6 minutes,Nine objects&#44 fireball when viewed by the eye&#44 cylinderical when viewed through a camera&#44 flew in a straight line,41.6,-72.65,night
10/13/2012 21:00,2012-10-13,21:00,waterbury,ct,us,fireball,300,5 minutes,Orange lights,41.56,-73.05,night
10/13/2012 21:15,2012-10-13,21:15,york springs,pa,us,oval,300,5 minutes,Saw 4 oval shape objects with orange/red lights.,40.01,-77.12,night
10/13/2012 21:21,2012-10-13,21:21,baton rouge,la,us,triangle,60,1 minute,There were two triangles&#44 each formed by three balls of fire/light. The balls appeared&#44 dissapeared&#44 reappeared and so on as the two tr,30.45,-91.15,night
10/13/2012 21:45,2012-10-13,21:45,mount laurel,nj,us,fireball,60,1 minute,At approximately 9:45pm EDT tonight&#44 I was driving home from work and spotted two orange light in the sky over Cemetary Road&#44 Mt. Laure,39.93,-74.89,night
10/13/2012 22:00,2012-10-13,22:00,isle of palms,sc,us,circle,180,3 minutes,12 Redish flying objects over Isle of Palms,32.79,-79.8,night
10/13/2012 22:05,2012-10-13,22:05,oregon city,or,us,unknown,900,15 minutes,I was out taking my dog to go &quot;potty&quot; when I looked up at an object emitting a solid orange-ish light-travelling south to nor,45.36,-122.61,night
10/13/2012 22:30,2012-10-13,22:30,seaford (uk/england),,gb,light,600,10 minutes,Unusual set of 3 lights captured on camera,50.77,0.1,night
10/13/2012 22:30,2012-10-13,22:30,tonbridge (uk/england),,gb,fireball,2,2 seconds,Laying on sofa &#44noticed green ball very quickly descend into tree line.,51.18,0.28,night
10/13/2012 22:54,2012-10-13,22:54,vineland (canada),on,,circle,2400,40 minutes,Tiny stars.,43.15,-79.39,night
10/13/2012 23:00,2012-10-13,23:00,mountain home,ar,us,light,900,10-15 minutes,Very bright red&#44 green&#44 white lights traveling south in an erratic manner directly over Hicks Creek,36.34,-92.38,night
10/13/2012 23:30,2012-10-13,23:30,new bern,nc,us,circle,120,2 minutes,2 red&#44 silent&#44 flying orbs,35.11,-77.04,night
10/13/2012 24:00,2012-10-13,00:00,kingston,pa,us,light,300,5 minutes,There were orange lights in the sky. The ones in the front formed a triangle v formation and there were several bright orange lights/,41.26,-75.9,night
10/13/2013 00:00,2013-10-13,00:00,bloomington,mn,us,sphere,120,several minutes,Several blue and white orbs hovering just south of the airport.,44.84,-93.3,night
10/13/2013 02:59,2013-10-13,02:59,salt lake city,ut,us,unknown,5,5 seconds,Bright flash in the sky followed by a distant explosion about 3 seconds later. It was not lightning. It was not a stormy night and ther,40.76,-111.89,night
10/13/2013 04:30,2013-10-13,04:30,toronto (canada),on,ca,fireball,3600,1 hour,Orange fireballs over Lake Ontario.  Geometric shapes.,43.67,-79.42,night
10/13/2013 05:01,2013-10-13,05:01,newark,tx,us,circle,10800,3 hours,Craft was low above trees circling lookin for something to pick up spraying white powder.,33.0,-97.48,night
10/13/2013 10:50,2013-10-13,10:50,santa fe,nm,us,,600,10 minutes,((HOAX??))  Some kind of aircraft with a HUGE wingspan was flying very low over my neighborhood in Santa Fe&#44 NM.,35.69,-105.94,daylight
10/13/2013 18:12,2013-10-13,18:12,afton,mo,,sphere,1200,20 minutes,As I watched the sunset I observed a large white sphere stationary to the south west of St.louis&#44 looked to be at least 40&#44000 feet&#44 ha,38.55,-90.33,night
10/13/2013 18:57,2013-10-13,18:57,council bluffs,ia,us,formation,480,8 minutes,3 bright white amber lights forming a perfect triangle and moving into an arch without a vapor trail.,41.26,-95.86,night
10/13/2013 18:57,2013-10-13,18:57,council bluffs,ia,us,light,480,8 minutes,Three white orange lights in the Western sky that formed a triangle then moved into a line before disappearing.,41.26,-95.86,night
10/13/2013 19:00,2013-10-13,19:00,irondequoit,ny,us,fireball,600,10 minutes,Fireball like objects floating in the sky.....same path.,43.21,-77.58,night
10/13/2013 19:00,2013-10-13,19:00,orange,nj,us,light,1800,30+ minutes,Bright white light  (occasionally diming and becoming fully bright again) displaying odd movements over the SW skies of Orange&#44 NJ,40.77,-74.23,night
10/13/2013 19:30,2013-10-13,19:30,oswego,il,us,circle,600,10 minutes,4 bright orbs in loose triangle over Oswego&#44 IL&#44 planets or hovering craft?,41.68,-88.35,night
10/13/2013 19:40,2013-10-13,19:40,mechanicsburg,pa,us,fireball,180,2-3 minutes,Ball of flames moving slowly across the night sky and witnessed by 4 people.,40.21,-77.01,night
10/13/2013 19:45,2013-10-13,19:45,pasadena,md,us,circle,60,1 minute,Orange object with white streaks observed near BWI airport.,39.11,-76.57,night
10/13/2013 19:45,2013-10-13,19:45,spring hill,fl,us,diamond,300,4-5 minutes,Five reddish objects in the sky moved from north to southest before going out of sight.,28.56,-82.45,night
10/13/2013 19:47,2013-10-13,19:47,spokane,wa,us,flash,900,8-15 minutes,I was on the phone in my front yard when I looked up in the sky and saw strobe lights on a craft for approx 10 sec and stopped then the,47.66,-117.42,night
10/13/2013 19:47,2013-10-13,19:47,west palm beach,fl,us,light,25,20-25 seconds,Flashing stationery light streaks off.,26.71,-80.04,night
